{"version": 0.6, "generator": "Overpass API 0.7.61.5 4133829e", "osm3s": {"timestamp_osm_base": "2024-03-08T21:11:44Z", "copyright": "The data included in this document is from www.openstreetmap.org. The data is made available under ODbL."}, "elements": [{"type": "node", "id": 2237797359, "lat": 57.3171598, "lon": 15.592427, "tags": {"amenity": "cafe", "name": "Caf\u00e9 Eken"}}, {"type": "node", "id": 2239794483, "lat": 57.3171631, "lon": 15.5844135, "tags": {"amenity": "cafe", "name": "Caf\u00e9 \u00c4ngeln", "opening_hours": "Jun-Aug", "tourism": "guest_house"}}, {"type": "node", "id": 2239794486, "lat": 57.3215437, "lon": 15.568232, "tags": {"amenity": "cafe", "name": "Centralkonditoriet"}}, {"type": "node", "id": 2239794504, "lat": 57.3180216, "lon": 15.5836324, "tags": {"addr:country": "SE", "addr:housenumber": "25", "addr:street": "Storgatan", "amenity": "restaurant", "cuisine": "barbecue;kebab;pizza", "name": "Pizzeria b\u00e4st p\u00e5 test", "opening_hours": "Mo-Su 11:00-21:30; PH", "phone": "+46 495 31803", "website": "http://www.b\u00e4stp\u00e5test.online", "wheelchair": "no"}}, {"type": "node", "id": 2803692120, "lat": 57.3200267, "lon": 15.5814804, "tags": {"amenity": "cafe", "name": "Cafe Da Capo"}}, {"type": "node", "id": 3831847696, "lat": 57.170854, "lon": 15.3439452, "tags": {"amenity": "restaurant"}}, {"type": "node", "id": 3834708548, "lat": 57.1686575, "lon": 15.3454579, "tags": {"amenity": "cafe", "name": "Centralkonditoriet"}}, {"type": "node", "id": 6746278320, "lat": 57.3165287, "lon": 15.5906549, "tags": {"amenity": "cafe", "level": "0", "name": "Caf\u00e9 Flotten", "opening_hours": "Jun 25-Aug 19 Mo-Su 12:00-17:00", "outdoor_seating": "yes", "takeaway": "no", "wheelchair": "limited"}}]}