{"version": 0.6, "generator": "Overpass API 0.7.61.5 4133829e", "osm3s": {"timestamp_osm_base": "2024-03-08T21:11:44Z", "copyright": "The data included in this document is from www.openstreetmap.org. The data is made available under ODbL."}, "elements": [{"type": "node", "id": 387211476, "lat": 57.701368, "lon": 13.3426993, "tags": {"amenity": "restaurant", "cuisine": "regional", "name": "Majblommeg\u00e5rden"}}, {"type": "node", "id": 444690672, "lat": 57.7207427, "lon": 12.9035158, "tags": {"amenity": "restaurant", "name": "Viking", "opening_hours": "Mo-Th 11:00-22:00; Fr 11:00-23:00; Sa 12:00-23:00; Su 12:00-22:00"}}, {"type": "node", "id": 445811405, "lat": 57.7140821, "lon": 12.9150339, "tags": {"amenity": "restaurant", "name": "Milit\u00e4rpalatset"}}, {"type": "node", "id": 446279314, "lat": 57.7201688, "lon": 12.9362516, "tags": {"amenity": "restaurant", "name": "Thai Silk", "wheelchair": "yes"}}, {"type": "node", "id": 446725314, "lat": 57.7202186, "lon": 12.9351649, "tags": {"amenity": "restaurant", "name": "K\u00f6ket"}}, {"type": "node", "id": 446725315, "lat": 57.7197454, "lon": 12.9349316, "tags": {"amenity": "restaurant", "name": "Babbel", "wheelchair": "limited"}}, {"type": "node", "id": 446725316, "lat": 57.7201489, "lon": 12.9384955, "tags": {"amenity": "restaurant", "cuisine": "greek", "name": "Oliven", "wheelchair": "no"}}, {"type": "node", "id": 446725317, "lat": 57.7217715, "lon": 12.9399632, "tags": {"addr:city": "Bor\u00e5s", "addr:country": "SE", "addr:housenumber": "30", "addr:postcode": "503 31", "addr:street": "\u00d6sterl\u00e5nggatan", "amenity": "restaurant", "cuisine": "thai", "name": "Springrolls"}}, {"type": "node", "id": 446725318, "lat": 57.7185445, "lon": 12.942727, "tags": {"amenity": "restaurant", "name": "Cecil", "wheelchair": "no"}}, {"type": "node", "id": 534930912, "lat": 57.6300955, "lon": 13.2922758}, {"type": "node", "id": 534930915, "lat": 57.6299434, "lon": 13.2921598}, {"type": "node", "id": 534930918, "lat": 57.6298952, "lon": 13.2923801}, {"type": "node", "id": 534930920, "lat": 57.6300473, "lon": 13.2924962}, {"type": "node", "id": 744800384, "lat": 57.7206371, "lon": 12.9388239, "tags": {"amenity": "restaurant", "check_date": "2023-07-22", "cuisine": "sushi", "name": "Eest", "wheelchair": "no"}}, {"type": "node", "id": 744800652, "lat": 57.722836, "lon": 12.9411066, "tags": {"amenity": "restaurant", "check_date": "2023-07-22", "name": "Brasseriet", "wheelchair": "yes"}}, {"type": "node", "id": 986829615, "lat": 57.7163719, "lon": 12.9469495}, {"type": "node", "id": 986830366, "lat": 57.7163872, "lon": 12.9467397}, {"type": "node", "id": 986830813, "lat": 57.7165839, "lon": 12.9467901}, {"type": "node", "id": 986830943, "lat": 57.7165686, "lon": 12.9469999}, {"type": "node", "id": 988687720, "lat": 57.732146, "lon": 12.9384649}, {"type": "node", "id": 988688134, "lat": 57.7320708, "lon": 12.9386956}, {"type": "node", "id": 988688269, "lat": 57.7321486, "lon": 12.9383599}, {"type": "node", "id": 988688360, "lat": 57.7320765, "lon": 12.9384629}, {"type": "node", "id": 988688465, "lat": 57.7323443, "lon": 12.9387193}, {"type": "node", "id": 988688568, "lat": 57.7321085, "lon": 12.9383564}, {"type": "node", "id": 988688682, "lat": 57.7323502, "lon": 12.9384825}, {"type": "node", "id": 988688747, "lat": 57.7321058, "lon": 12.9384654}, {"type": "node", "id": 1042716422, "lat": 57.6898423, "lon": 12.94411}, {"type": "node", "id": 1042716539, "lat": 57.6898739, "lon": 12.9445016}, {"type": "node", "id": 1042716542, "lat": 57.6898853, "lon": 12.9444453}, {"type": "node", "id": 1042716654, "lat": 57.6899914, "lon": 12.9442012}, {"type": "node", "id": 1042716787, "lat": 57.6898266, "lon": 12.944389}, {"type": "node", "id": 1042716806, "lat": 57.6899298, "lon": 12.9444641}, {"type": "node", "id": 1042716909, "lat": 57.6897893, "lon": 12.9443595}, {"type": "node", "id": 1042716976, "lat": 57.6899585, "lon": 12.9443997}, {"type": "node", "id": 1042717182, "lat": 57.6898122, "lon": 12.9444614}, {"type": "node", "id": 1071687826, "lat": 57.7203948, "lon": 12.9183638}, {"type": "node", "id": 1071687959, "lat": 57.7204025, "lon": 12.9180669}, {"type": "node", "id": 1071688084, "lat": 57.7203332, "lon": 12.918304}, {"type": "node", "id": 1071688105, "lat": 57.7204609, "lon": 12.9181226}, {"type": "node", "id": 1259953216, "lat": 57.4955807, "lon": 13.111161, "tags": {"amenity": "cafe", "name": "Ewas caf\u00e9"}}, {"type": "node", "id": 1259953232, "lat": 57.4962805, "lon": 13.1120425, "tags": {"amenity": "restaurant", "cuisine": "pizza"}}, {"type": "node", "id": 1259953235, "lat": 57.4960368, "lon": 13.1143469, "tags": {"amenity": "restaurant", "cuisine": "pizza", "name": "Dallas Pizzeria", "takeaway": "yes"}}, {"type": "node", "id": 1393609416, "lat": 57.7076858, "lon": 12.9700742, "tags": {"amenity": "restaurant", "cuisine": "pizza", "name": "Pizzeria Hawaii"}}, {"type": "node", "id": 1415198828, "lat": 57.4204175, "lon": 13.2941374}, {"type": "node", "id": 1415198830, "lat": 57.420385, "lon": 13.2943139}, {"type": "node", "id": 1415198831, "lat": 57.4205622, "lon": 13.2942291}, {"type": "node", "id": 1415198832, "lat": 57.4205298, "lon": 13.2944057}, {"type": "node", "id": 1505140662, "lat": 57.7410562, "lon": 12.9493969}, {"type": "node", "id": 1505140671, "lat": 57.741091, "lon": 12.9491397}, {"type": "node", "id": 1505140702, "lat": 57.7412599, "lon": 12.9492201}, {"type": "node", "id": 1505140703, "lat": 57.7412613, "lon": 12.9494945}, {"type": "node", "id": 1505140705, "lat": 57.7412841, "lon": 12.9493259}, {"type": "node", "id": 1734496061, "lat": 57.7342515, "lon": 12.9393936, "tags": {"addr:country": "SE", "addr:housenumber": "1", "addr:postcode": "50630", "addr:street": "Herrljungagatan", "amenity": "cafe", "cuisine": "coffee_shop", "name": "Cafe Viskan Express", "website": "https://cafeviskan.se/viskan-express/"}}, {"type": "node", "id": 1734496076, "lat": 57.720291, "lon": 12.9371936, "tags": {"addr:city": "Bor\u00e5s", "addr:country": "SE", "addr:housenumber": "7", "addr:street": "Hallbergsgatan", "amenity": "restaurant", "check_date": "2023-07-22", "name": "InSpice", "wheelchair": "yes"}}, {"type": "node", "id": 1734496195, "lat": 57.7250757, "lon": 12.9397625, "tags": {"amenity": "cafe", "wheelchair": "yes"}}, {"type": "node", "id": 1737301875, "lat": 57.761478, "lon": 12.9390665, "tags": {"amenity": "cafe", "name": "Almen\u00e4s caf\u00e9 & k\u00f6k"}}, {"type": "node", "id": 1776169510, "lat": 57.4427136, "lon": 13.5972867, "tags": {"amenity": "restaurant", "cuisine": "pizza", "name": "Rixi", "opening_hours": "Mo-Th 11:30-21:00;Fr 11:30-23:00;Sa 12:00-23:00;Su 12:00-21:00"}}, {"type": "node", "id": 1780247479, "lat": 57.7217569, "lon": 12.9379138, "tags": {"addr:city": "Bor\u00e5s", "addr:country": "SE", "addr:housenumber": "12", "addr:postcode": "503 30", "addr:street": "V\u00e4sterl\u00e5nggatan", "amenity": "restaurant", "cuisine": "burger", "name": "Tugg Burgers", "opening_hours": "Mo off; Tu-We 11:00-22:00; Th-Fr 11:00-23:00; Sa 12:00-23:00; Su 12:00-20:00", "wheelchair": "limited"}}, {"type": "node", "id": 1863534299, "lat": 57.6163837, "lon": 13.1108018, "tags": {"addr:country": "SE", "addr:housenumber": "32", "amenity": "restaurant", "name": "Gunillas W\u00e4rdshus"}}, {"type": "node", "id": 1871089493, "lat": 57.704548, "lon": 12.955379, "tags": {"amenity": "restaurant", "cuisine": "pizza", "name": "Hedvigsborgs Pizzeria"}}, {"type": "node", "id": 2264629139, "lat": 57.4966691, "lon": 13.1113484, "tags": {"amenity": "restaurant", "cuisine": "pizza", "name": "Ferrari Pizzeria"}}, {"type": "node", "id": 2458134467, "lat": 57.7162504, "lon": 12.9185965, "tags": {"addr:city": "Bor\u00e5s", "addr:country": "SE", "addr:housenumber": "35", "addr:postcode": "50435", "addr:street": "G\u00f6teborgsv\u00e4gen", "amenity": "restaurant", "cuisine": "thai", "name": "Jennys Thai", "website": "https://jennysthai.se/"}}, {"type": "node", "id": 2838425330, "lat": 57.4189943, "lon": 13.6277058}, {"type": "node", "id": 2838425331, "lat": 57.4190316, "lon": 13.6270473}, {"type": "node", "id": 2838425332, "lat": 57.4190896, "lon": 13.6277245}, {"type": "node", "id": 2838425333, "lat": 57.4190921, "lon": 13.6276795}, {"type": "node", "id": 2838425334, "lat": 57.4191416, "lon": 13.6269906}, {"type": "node", "id": 2838425335, "lat": 57.4191372, "lon": 13.6270679}, {"type": "node", "id": 2838425336, "lat": 57.4191741, "lon": 13.6274374}, {"type": "node", "id": 2838425337, "lat": 57.4191678, "lon": 13.627548}, {"type": "node", "id": 2838425338, "lat": 57.4191898, "lon": 13.6271595}, {"type": "node", "id": 2838425339, "lat": 57.419183, "lon": 13.6272716}, {"type": "node", "id": 2838425340, "lat": 57.419191, "lon": 13.6274211}, {"type": "node", "id": 2838425341, "lat": 57.419187, "lon": 13.6275518}, {"type": "node", "id": 2838425342, "lat": 57.4191788, "lon": 13.6276964}, {"type": "node", "id": 2838425343, "lat": 57.4191977, "lon": 13.6272955}, {"type": "node", "id": 2838425344, "lat": 57.4192051, "lon": 13.6273311}, {"type": "node", "id": 2838425345, "lat": 57.4192035, "lon": 13.6273865}, {"type": "node", "id": 2838425346, "lat": 57.4192222, "lon": 13.6271659}, {"type": "node", "id": 2838425347, "lat": 57.4192311, "lon": 13.6270082}, {"type": "node", "id": 2907633559, "lat": 57.4845743, "lon": 13.3532742, "tags": {"amenity": "restaurant", "cuisine": "thai;sushi", "name": "Orkide Thai", "opening_hours": "Tu-Th 11:00-21:00; Fr 11:00-22:00; Sa 12:00-22:00; Su 12:00-21:00", "wheelchair": "limited"}}, {"type": "node", "id": 3140207179, "lat": 57.4369792, "lon": 13.6236978, "tags": {"amenity": "restaurant", "name": "Restaurang H\u00f6ganloft"}}, {"type": "node", "id": 3179618520, "lat": 57.7165456, "lon": 12.8923395, "tags": {"addr:city": "Bor\u00e5s", "addr:country": "SE", "addr:housenumber": "4", "addr:postcode": "504 62", "addr:street": "Brinellgatan", "amenity": "restaurant", "contact:phone": "+46 10 5165068;+46 70 4617592", "name": "Visionen"}}, {"type": "node", "id": 3706897470, "lat": 57.5356741, "lon": 13.3537605, "tags": {"addr:city": "Limmared", "addr:country": "SE", "addr:housenumber": "2", "addr:postcode": "51441", "addr:street": "\u00d6stra j\u00e4rnv\u00e4gsgatan", "amenity": "restaurant", "name": "Glasets hus"}}, {"type": "node", "id": 3806918128, "lat": 57.5374185, "lon": 13.3546458}, {"type": "node", "id": 3869625587, "lat": 57.7274945, "lon": 13.0056874, "tags": {"addr:city": "Bor\u00e5s", "addr:country": "SE", "addr:housenumber": "1", "addr:postcode": "507 31", "addr:street": "Kornellgatan", "amenity": "restaurant", "cuisine": "kebab;pizza", "name": "Br\u00e4mhults pizzeria"}}, {"type": "node", "id": 3869625588, "lat": 57.7272896, "lon": 13.0059919, "tags": {"addr:city": "Bor\u00e5s", "addr:country": "SE", "addr:housenumber": "2", "addr:postcode": "507 31", "addr:street": "Kornellgatan", "amenity": "restaurant", "breakfast": "yes", "internet_access": "yes", "internet_access:fee": "no", "name": "Lages Motel & Restaurang", "tourism": "hotel", "website": "https://www.lages.se/"}}, {"type": "node", "id": 4039180316, "lat": 57.7252496, "lon": 12.8979447, "tags": {"addr:city": "Bor\u00e5s", "addr:country": "SE", "addr:housenumber": "2", "addr:postcode": "50470", "addr:street": "Hestra Ringv\u00e4g", "amenity": "restaurant", "cuisine": "burger;pizza", "name": "Street Friends", "name:en": "Tonys Restaurang", "name:sv": "Tonys Restaurang", "opening_hours": "Mo-Th 11:00-14:00,17:00-20:30; Fr 11:00-21:00; Sa 13:00-21:00; Su 13:00-20:30", "phone": "+46 72 320 8519", "takeaway": "yes", "website": "https://www.tonysrestaurang.se/"}}, {"type": "node", "id": 4450699389, "lat": 57.7217791, "lon": 12.9413549, "tags": {"addr:city": "Bor\u00e5s", "addr:country": "SE", "addr:housenumber": "32", "addr:street": "All\u00e9gatan", "amenity": "restaurant", "cuisine": "asian", "name": "Namaste Nepal"}}, {"type": "node", "id": 4506226126, "lat": 57.7245353, "lon": 12.9400385, "tags": {"addr:country": "SE", "addr:housenumber": "1", "addr:street": "All\u00e9gatan", "amenity": "restaurant", "check_date": "2023-07-22", "description": "Lunch restaurant", "name": "Restaurang Balder", "opening_hours": "Mo-Fr 11:00-14:00", "phone": "+46-33 435 41 92", "website": "https://www.restaurangbalder.se/"}}, {"type": "node", "id": 4585821324, "lat": 57.7231583, "lon": 13.1058461, "tags": {"addr:city": "Dalsj\u00f6fors", "addr:country": "SE", "addr:housenumber": "25", "addr:postcode": "51631", "addr:street": "Storgatan", "addr:unit": "B", "amenity": "restaurant", "check_date": "2023-08-20", "cuisine": "kebab;pizza", "diet:vegetarian": "yes", "level": "0", "name": "Pizzeria Roma", "opening_hours": "Mo-Th 11:00-21:00; Fr 11:00-22:00; Sa 12:00-22:00; Su 12:00-21:00", "outdoor_seating": "yes", "phone": "+4633272966;+4633270370", "takeaway": "yes", "toilets": "yes", "website": "https://www.romadalsjofors.se/"}}, {"type": "node", "id": 4629603589, "lat": 57.4851456, "lon": 13.353639, "tags": {"addr:city": "Tranemo", "addr:country": "SE", "addr:housenumber": "15", "addr:postcode": "51433", "addr:street": "Storgatan", "amenity": "restaurant", "cuisine": "pizza", "name": "Stella Pizzeria", "opening_hours": "Mo-Th 11:00-21:00; Fr 11:00-22:00; Sa 12:00-22:00; Su 12:00-21:00"}}, {"type": "node", "id": 5005225049, "lat": 57.7091305, "lon": 12.9620245, "tags": {"addr:country": "SE", "addr:housenumber": "41", "addr:street": "Trandaredsgatan", "amenity": "restaurant", "cuisine": "pizza", "name": "Saint George Pizzeria"}}, {"type": "node", "id": 5056511313, "lat": 57.6516614, "lon": 13.2806647, "tags": {"amenity": "restaurant"}}, {"type": "node", "id": 5058700497, "lat": 57.7198857, "lon": 12.9396957, "tags": {"addr:city": "Bor\u00e5s", "addr:country": "SE", "addr:housenumber": "5", "addr:postcode": "503 35", "addr:street": "S\u00f6dra Strandgatan", "amenity": "cafe", "name": "Caf\u00e9 Viskan", "wheelchair": "no"}}, {"type": "node", "id": 5777455434, "lat": 57.4350601, "lon": 13.6092572, "tags": {"amenity": "cafe"}}, {"type": "node", "id": 6069559091, "lat": 57.6795063, "lon": 13.3782139}, {"type": "node", "id": 6069559092, "lat": 57.6794936, "lon": 13.3780121}, {"type": "node", "id": 6069559093, "lat": 57.6793911, "lon": 13.3780346}, {"type": "node", "id": 6069559094, "lat": 57.6794038, "lon": 13.3782365}, {"type": "node", "id": 6283570423, "lat": 57.4667172, "lon": 13.2157218, "tags": {"addr:city": "Svenljunga", "addr:housename": "Str\u00f6msfors hotell", "addr:postcode": "51293", "amenity": "cafe", "cuisine": "coffee_shop", "name": "G\u00f6tas caf\u00e9", "source": "http://pierreryden.wixsite.com/gotascafe"}}, {"type": "node", "id": 6641235286, "lat": 57.7211503, "lon": 12.9411264, "tags": {"addr:country": "SE", "addr:housenumber": "35", "addr:postcode": "503 31", "addr:street": "\u00d6sterl\u00e5nggatan", "amenity": "restaurant", "cuisine": "seafood;regional;fish;local", "email": "info@thetownhouse.se", "internet_access": "wlan", "name": "The Townhouse Bor\u00e5s", "opening_hours": "Mo-We 11:30-24:00; Th-Fr 11:30-01:00, Sa 12:00-01:00", "phone": "+46 33 323 63 13", "website": "https://thetownhouse.se/"}}, {"type": "node", "id": 7012479414, "lat": 57.7289194, "lon": 12.9465053, "tags": {"addr:city": "Bor\u00e5s", "addr:country": "SE", "addr:housenumber": "25", "addr:postcode": "506 36", "addr:street": "D\u00f6belnsgatan", "amenity": "restaurant", "cuisine": "pizza", "name": "Norrmalms Pizzeria", "opening_hours": "Mo-Fr 11:00-22:00; Sa-Su 12:00-22:00", "phone": "+46 33 10 29 40"}}, {"type": "node", "id": 7810997683, "lat": 57.7232423, "lon": 13.1056917, "tags": {"addr:city": "Dalsj\u00f6fors", "addr:country": "SE", "addr:housenumber": "25", "addr:postcode": "51631", "addr:street": "Storgatan", "amenity": "restaurant", "cuisine": "tapas", "email": "info@ravenochronnbaren.se", "name": "R\u00e4ven och R\u00f6nnb\u00e4ren", "opening_hours": "Mo,Tu 11:00-15:00; We-Fr 11:00-15:00,17:00-18:00+; Sa 12:00-18:00+; Su 12:00-20:00", "outdoor_seating": "yes", "phone": "+46 33 3232532", "reservation": "yes", "takeaway": "yes", "website": "https://www.ravenochronnbaren.se/", "wheelchair": "yes"}}, {"type": "node", "id": 8509845734, "lat": 57.7484278, "lon": 13.0070856, "tags": {"addr:city": "Br\u00e4mhult", "addr:country": "SE", "addr:housenumber": "7", "addr:postcode": "507 90", "addr:street": "Eskilsryd", "amenity": "cafe", "name": "Br\u00e4mhults G\u00e5rd", "phone": "+46709853535", "website": "https://www.bramhultsgard.se/"}}, {"type": "node", "id": 8568282290, "lat": 57.6709386, "lon": 13.4323402}, {"type": "node", "id": 8568282291, "lat": 57.6708062, "lon": 13.4323402}, {"type": "node", "id": 8568282292, "lat": 57.6708049, "lon": 13.4322135}, {"type": "node", "id": 8568282293, "lat": 57.6709376, "lon": 13.4322104}, {"type": "node", "id": 9963470042, "lat": 57.7251379, "lon": 12.9344006, "tags": {"amenity": "restaurant", "name": "Sindbad"}}, {"type": "node", "id": 10105440896, "lat": 57.7411948, "lon": 12.9494629, "tags": {"amenity": "toilets"}}, {"type": "node", "id": 10170823933, "lat": 57.7192011, "lon": 12.939914, "tags": {"addr:city": "Bor\u00e5s", "addr:country": "SE", "addr:housenumber": "1", "addr:postcode": "503 38", "addr:street": "Teaterbron", "amenity": "restaurant", "name": "Orangeriet", "opening_hours": "Mo-Sa 10:00-15:00", "website": "https://www.orangerietiboras.se"}}, {"type": "node", "id": 10262341972, "lat": 57.6005255, "lon": 13.5288429, "tags": {"amenity": "restaurant", "cuisine": "pizza", "name": "Campino Pizzeria"}}, {"type": "node", "id": 10308500799, "lat": 57.7213099, "lon": 12.9114912, "tags": {"addr:city": "Bor\u00e5s", "addr:country": "SE", "addr:housenumber": "37", "addr:postcode": "504 65", "addr:street": "Vindelgatan", "addr:unit": "D", "amenity": "cafe", "cuisine": "coffee_shop;ice_cream;cake;chocolate;dessert", "name": "Rammefors Konditori & Caf\u00e9", "opening_hours": "Mo-Fr 07:00-18:00", "operator": "Rammefors Konditori & Caf\u00e9", "outdoor_seating": "no", "phone": "+4633418933", "shop": "confectionery", "website": "https://rammefors.se/"}}, {"type": "node", "id": 10309330506, "lat": 57.7200341, "lon": 12.9033139, "tags": {"addr:city": "Bor\u00e5s", "addr:country": "SE", "addr:housenumber": "47", "addr:postcode": "504 60", "addr:street": "Fj\u00e4llgatan", "amenity": "restaurant", "cuisine": "asian;thai", "diet:chicken": "yes", "diet:vegan": "yes", "diet:vegetarian": "yes", "name": "Sabaidee Opeja", "opening_hours": "Mo-Fr 11:00-19:30", "payment:cash": "yes", "payment:credit_cards": "yes", "payment:debit_cards": "yes", "phone": "+4633413520", "website": "https://www.opeja.se/", "wheelchair": "yes"}}, {"type": "node", "id": 10536564916, "lat": 57.4110645, "lon": 12.9692774}, {"type": "node", "id": 10536567928, "lat": 57.5817689, "lon": 13.1221831, "tags": {"amenity": "restaurant", "cuisine": "pizza"}}, {"type": "node", "id": 10536583490, "lat": 57.4111794, "lon": 12.9689395}, {"type": "node", "id": 10536583491, "lat": 57.4111399, "lon": 12.9693657}, {"type": "node", "id": 10536583492, "lat": 57.4112547, "lon": 12.9690278}, {"type": "node", "id": 10701957329, "lat": 57.6708868, "lon": 13.4323893, "tags": {"amenity": "restaurant", "name": "Maestro pizzeria"}}, {"type": "node", "id": 10825292994, "lat": 57.5377286, "lon": 13.354456}, {"type": "node", "id": 10825292995, "lat": 57.5375489, "lon": 13.354455}, {"type": "node", "id": 10825292996, "lat": 57.5375488, "lon": 13.3545228}, {"type": "node", "id": 10825292997, "lat": 57.5374685, "lon": 13.3545223}, {"type": "node", "id": 10825292998, "lat": 57.5374683, "lon": 13.3546461}, {"type": "node", "id": 10825292999, "lat": 57.5374183, "lon": 13.3547258}, {"type": "node", "id": 10825293000, "lat": 57.5372571, "lon": 13.3547249}, {"type": "node", "id": 10825293001, "lat": 57.5372575, "lon": 13.3544752}, {"type": "node", "id": 10825293002, "lat": 57.5373203, "lon": 13.3544755}, {"type": "node", "id": 10825293003, "lat": 57.5373802, "lon": 13.3544758}, {"type": "node", "id": 10825293004, "lat": 57.5373803, "lon": 13.354436}, {"type": "node", "id": 10825293005, "lat": 57.5373883, "lon": 13.3544361}, {"type": "node", "id": 10825293006, "lat": 57.5373884, "lon": 13.3544075}, {"type": "node", "id": 10825293007, "lat": 57.537413, "lon": 13.3544076}, {"type": "node", "id": 10825293008, "lat": 57.537413, "lon": 13.3544228}, {"type": "node", "id": 10825293009, "lat": 57.5374625, "lon": 13.3544231}, {"type": "node", "id": 10825293010, "lat": 57.5374628, "lon": 13.3542397}, {"type": "node", "id": 10825293011, "lat": 57.5375324, "lon": 13.3542401}, {"type": "node", "id": 10825293012, "lat": 57.5375325, "lon": 13.3541837}, {"type": "node", "id": 10825293013, "lat": 57.537729, "lon": 13.3541848}, {"type": "node", "id": 10966117771, "lat": 57.6669274, "lon": 13.3277976}, {"type": "node", "id": 10966117772, "lat": 57.6667826, "lon": 13.3277331}, {"type": "node", "id": 10966117773, "lat": 57.6667576, "lon": 13.3279289}, {"type": "node", "id": 10966117774, "lat": 57.6668656, "lon": 13.327977}, {"type": "node", "id": 10966117775, "lat": 57.6668567, "lon": 13.3280472}, {"type": "node", "id": 10966117776, "lat": 57.6668934, "lon": 13.3280636}, {"type": "node", "id": 11062161782, "lat": 57.7200128, "lon": 12.9410551, "tags": {"amenity": "restaurant", "check_date": "2023-07-22", "cuisine": "burger", "name": "Hell's Burger", "opening_hours": "Tu,We 16:00-21:00; Fr 11:00-18:00+; Sa 12:00-18:00+; Su 12:00-20:00"}}, {"type": "node", "id": 11062161783, "lat": 57.7200432, "lon": 12.9408396, "tags": {"amenity": "restaurant", "check_date": "2023-07-22", "cuisine": "italian", "name": "La Custosa"}}, {"type": "node", "id": 11062173561, "lat": 57.7199336, "lon": 12.9374922, "tags": {"amenity": "restaurant", "check_date": "2023-07-22", "cuisine": "pizza;kebab", "name": "Bor\u00e5s Kebab"}}, {"type": "node", "id": 11062228490, "lat": 57.7233067, "lon": 12.9390554, "tags": {"amenity": "restaurant", "check_date": "2023-07-22", "cuisine": "indian", "name": "Masala", "opening_hours": "Tu-Fr 11:00-22:00; Sa 12:00-22:00; Su 12:00-20:00", "wheelchair": "limited"}}, {"type": "node", "id": 11062228491, "lat": 57.7236529, "lon": 12.9391448, "tags": {"amenity": "restaurant", "check_date": "2023-07-22", "cuisine": "chinese", "name": "China Town"}}, {"type": "node", "id": 11123581244, "lat": 57.7199227, "lon": 12.9401203, "tags": {"amenity": "restaurant", "name": "Viskan Vinbar", "opening_hours": "Tu-Sa 17:00-18:00+"}}, {"type": "node", "id": 11123581246, "lat": 57.7199793, "lon": 12.940473, "tags": {"amenity": "restaurant", "name": "Restaurang Vinci"}}, {"type": "node", "id": 11123581247, "lat": 57.7138091, "lon": 12.9391485, "tags": {"amenity": "cafe", "name": "Gullkragens Konditori"}}, {"type": "node", "id": 11123617847, "lat": 57.7205913, "lon": 12.9371423, "tags": {"amenity": "restaurant", "name": "Pizzeria Granada"}}, {"type": "node", "id": 11123618940, "lat": 57.7198512, "lon": 12.9422404, "tags": {"amenity": "cafe", "name": "Cafe Orion"}}, {"type": "node", "id": 11203282456, "lat": 57.7189203, "lon": 12.9425946, "tags": {"amenity": "restaurant", "cuisine": "international", "name": "Sagateatern", "website": "https://www.sagateatern.se/"}}, {"type": "node", "id": 11203312037, "lat": 57.7206014, "lon": 12.9396663, "tags": {"amenity": "cafe", "brand": "Espresso House", "brand:wikidata": "Q10489162", "cuisine": "coffee_shop", "internet_access": "yes", "name": "Espresso house", "takeaway": "yes"}}, {"type": "node", "id": 11203511845, "lat": 57.7239791, "lon": 12.9271726, "tags": {"addr:city": "Bor\u00e5s", "addr:country": "SE", "addr:housenumber": "36", "addr:postcode": "504 38", "addr:street": "Alings\u00e5sv\u00e4gen", "amenity": "restaurant", "contact:email": "stjarnklart@boras.se", "contact:phone": "+46 33-35 77 51", "cuisine": "swedish;fine_dining", "fixme": "location", "level": "3", "level:ref": "4", "name": "Stj\u00e4rnklart", "opening_hours": "\"Most Thursdays and Fridays, some Tuesdays 11:30-14:00\"", "operator": "Alings\u00e5sgymnasiet", "payment:cash": "no", "payment:mastercard": "yes", "payment:swish": "yes", "payment:visa": "yes", "reservation": "recommended", "website": "https://www.boras.se/utbildningochforskola/gymnasieskola/gymnasieskolor/almasgymnasiet/omskolan/butikersalongerochrestaurang/stjarnklart.4.560f4754158d3176d4030341.html"}}, {"type": "node", "id": 11216175712, "lat": 57.720577, "lon": 12.9418064, "tags": {"amenity": "restaurant", "cuisine": "tapas", "name": "Pinchos"}}, {"type": "node", "id": 11216175715, "lat": 57.7203304, "lon": 12.9414451, "tags": {"amenity": "restaurant", "cuisine": "turkish", "name": "D\u00f6ner No.1"}}, {"type": "node", "id": 11220768728, "lat": 57.7229297, "lon": 12.9416354, "tags": {"amenity": "cafe", "name": "Divine"}}, {"type": "node", "id": 11220787605, "lat": 57.7231878, "lon": 12.9384696, "tags": {"addr:street": "Yxhammarsgatan", "amenity": "restaurant", "cuisine": "persian", "name": "Adrians"}}, {"type": "node", "id": 11220809619, "lat": 57.7226808, "lon": 12.9393443, "tags": {"addr:street": "Skolgatan", "amenity": "cafe", "name": "Bakg\u00e5rden"}}, {"type": "node", "id": 11220834966, "lat": 57.7235259, "lon": 12.9401567, "tags": {"addr:country": "SE", "addr:housenumber": "10", "addr:street": "Yxhammarsgatan", "amenity": "restaurant", "name": "Funky Town"}}, {"type": "node", "id": 11220834967, "lat": 57.7235173, "lon": 12.9400494, "tags": {"addr:city": "Bor\u00e5s", "addr:country": "SE", "addr:housenumber": "8-10", "addr:street": "Yxhammarsgatan", "amenity": "restaurant", "cuisine": "sushi", "name": "Shimadas", "opening_hours": "Mo-Fr 11:00-18:00", "phone": "033-22 66 20", "website": "https://shimadas.se/"}}, {"type": "node", "id": 11264117850, "lat": 57.7335856, "lon": 12.938819, "tags": {"amenity": "cafe", "brand": "Espresso House", "brand:wikidata": "Q10489162", "cuisine": "coffee_shop", "internet_access": "yes", "internet_access:fee": "no", "name": "Espresso House", "takeaway": "yes"}}, {"type": "node", "id": 11264201320, "lat": 57.733244, "lon": 12.9399311, "tags": {"amenity": "restaurant", "cuisine": "burger", "name": "Br\u00f6dernas"}}, {"type": "node", "id": 11269482529, "lat": 57.7196474, "lon": 12.9423299, "tags": {"addr:city": "Bor\u00e5s", "addr:housenumber": "3", "addr:postcode": "503 60", "addr:street": "\u00c5sbogatan", "amenity": "restaurant", "cuisine": "indian", "name": "Truly Indian Express", "phone": "04633418 700", "website": "http://www.trulyindian.com/trulyindian_express_meny.htm"}}, {"type": "node", "id": 11269506752, "lat": 57.7205987, "lon": 12.936277, "tags": {"amenity": "restaurant", "cuisine": "tex-mex", "name": "Taco Bar"}}, {"type": "node", "id": 11298008459, "lat": 57.7226564, "lon": 12.9401743, "tags": {"amenity": "restaurant", "name": "Sultan Palace"}}, {"type": "node", "id": 11300953100, "lat": 57.7216603, "lon": 12.9414431, "tags": {"amenity": "restaurant", "cuisine": "pizza", "name": "All\u00e9 Terassen"}}, {"type": "node", "id": 11374041081, "lat": 57.7141697, "lon": 12.9483009, "tags": {"addr:city": "Bor\u00e5s", "addr:housenumber": "13", "addr:postcode": "50451", "addr:street": "Katrinedalsgatan", "amenity": "restaurant", "cuisine": "pizza;breakfast", "name": "Katrinedals Pizza & Bar", "opening_hours": "Mo-Th 06:30-20:45; Fr 06:00-22:00; Sa 11:00-21:30", "phone": "+4633138710", "website": "https://katrinedals-pizza-bar.business.site/"}}, {"type": "node", "id": 11403582632, "lat": 57.7236837, "lon": 12.9446315, "tags": {"addr:city": "Bor\u00e5s", "addr:housenumber": "9", "addr:postcode": "50333", "addr:street": "Skolgatan", "amenity": "restaurant", "contact:instagram": "https://www.tiktok.com/@hollywoodboras", "contact:tiktok": "https://www.tiktok.com/@hollywoodboras", "cuisine": "pizza;grill;kebab", "email": "info@hollywoodboras.se", "name": "Hollywood Pizzeria", "opening_hours": "Mo-Fr 11:00-21:00; Sa-Su 12:00-21:00", "phone": "+4633138811", "website": "https://hollywoodboras.se/"}}, {"type": "node", "id": 11527913518, "lat": 57.7222715, "lon": 12.9406351, "tags": {"amenity": "restaurant", "cuisine": "vietnamese", "name": "Qui"}}, {"type": "node", "id": 11527913519, "lat": 57.7214866, "lon": 12.9413003, "tags": {"addr:street": "Torggatan", "amenity": "restaurant", "cuisine": "vietnamese", "name": "Khoi"}}, {"type": "node", "id": 11528178967, "lat": 57.7222518, "lon": 12.9405226, "tags": {"amenity": "restaurant", "cuisine": "indian", "name": "Gujju", "website": "https://www.gujju.se/"}}, {"type": "node", "id": 11528270726, "lat": 57.7220984, "lon": 12.9415943, "tags": {"amenity": "cafe", "name": "Tant Gr\u00f6n"}}, {"type": "way", "id": 42782612, "nodes": [534930912, 534930915, 534930918, 534930920, 534930912], "tags": {"amenity": "restaurant", "building": "yes", "cuisine": "fine_dining", "name": "Hovsn\u00e4s Herrg\u00e5rd"}}, {"type": "way", "id": 85043051, "nodes": [986830813, 986830943, 986829615, 986830366, 986830813], "tags": {"addr:city": "Bor\u00e5s", "addr:country": "SE", "addr:housenumber": "6", "addr:street": "Annelunds Parkv\u00e4g", "amenity": "restaurant", "building": "yes"}}, {"type": "way", "id": 85262906, "nodes": [988688360, 988688747, 988688568, 988688269, 988687720, 988688682, 988688465, 988688134, 988688360], "tags": {"amenity": "restaurant", "building": "retail", "cuisine": "thai", "name": "Young Thai"}}, {"type": "way", "id": 89955567, "nodes": [1042716654, 1042716976, 1042716806, 1042716542, 1042716539, 1042717182, 1042716787, 1042716909, 1042716422, 1042716654], "tags": {"amenity": "restaurant", "building": "yes"}}, {"type": "way", "id": 92348916, "nodes": [1071688084, 1071687959, 1071688105, 1071687826, 1071688084], "tags": {"amenity": "cafe", "building": "yes"}}, {"type": "way", "id": 127975570, "nodes": [1415198831, 1415198828, 1415198830, 1415198832, 1415198831], "tags": {"addr:city": "Ambj\u00f6rnarp", "addr:country": "SE", "addr:housenumber": "1", "addr:postcode": "51493", "addr:street": "Lidav\u00e4gen", "amenity": "cafe", "building": "yes", "contact:phone": "+46 325 - 602 04", "name": "Ambj\u00f6rnarps Caf\u00e9 & Byakrog", "opening_hours": "Mo-Fr 11:00-18:00;Sa 11:00-15:00", "smoking": "no"}}, {"type": "way", "id": 137212409, "nodes": [1505140703, 1505140705, 1505140702, 1505140671, 1505140662, 10105440896, 1505140703], "tags": {"amenity": "restaurant", "building": "yes"}}, {"type": "way", "id": 279628385, "nodes": [2838425347, 2838425334, 2838425335, 2838425331, 2838425330, 2838425332, 2838425333, 2838425342, 2838425341, 2838425337, 2838425336, 2838425340, 2838425345, 2838425344, 2838425343, 2838425339, 2838425338, 2838425346, 2838425347], "tags": {"addr:city": "Hestra", "addr:country": "SE", "addr:postcode": "33027", "amenity": "restaurant", "building": "yes", "cuisine": "regional", "name": "Hestraviken"}}, {"type": "way", "id": 645785362, "nodes": [6069559094, 6069559093, 6069559092, 6069559091, 6069559094], "tags": {"addr:city": "Vegby", "addr:country": "SE", "addr:housenumber": "3", "addr:postcode": "52362", "addr:street": "Strandv\u00e4gen", "amenity": "cafe", "building": "yes", "name": "Caf\u00e9 Nyfiket", "phone": "+46 730 854068"}}, {"type": "way", "id": 923031924, "nodes": [8568282290, 8568282291, 8568282292, 8568282293, 8568282290], "tags": {"addr:city": "G\u00e4llstad", "addr:country": "SE", "addr:housenumber": "120", "addr:postcode": "52360", "addr:street": "Fr\u00f6lunda", "amenity": "restaurant", "building": "yes", "cuisine": "pizza"}}, {"type": "way", "id": 1130585920, "nodes": [10536583492, 10536583491, 10536564916, 10536583490, 10536583492], "tags": {"amenity": "restaurant", "building": "yes", "name": "Apelkvistens W\u00e4rdshus och logi"}}, {"type": "way", "id": 1163996653, "nodes": [10825293013, 10825293012, 10825293011, 10825293010, 10825293009, 10825293008, 10825293007, 10825293006, 10825293005, 10825293004, 10825293003, 10825293002, 10825293001, 10825293000, 10825292999, 3806918128, 10825292998, 10825292997, 10825292996, 10825292995, 10825292994, 10825293013], "tags": {"amenity": "restaurant", "building": "yes", "cuisine": "regional", "name": "Limmareds v\u00e4rdshus"}}, {"type": "way", "id": 1180744623, "nodes": [10966117771, 10966117772, 10966117773, 10966117774, 10966117775, 10966117776, 10966117771], "tags": {"addr:city": "Vegby", "addr:country": "SE", "addr:housenumber": "103", "addr:postcode": "52362", "addr:street": "\u00c5sundsholms Herrg\u00e5rd", "amenity": "restaurant", "building": "yes", "name": "\u00c5sundsholms Herrg\u00e5rd"}}]}