{"version": 0.6, "generator": "Overpass API 0.7.61.5 4133829e", "osm3s": {"timestamp_osm_base": "2024-03-08T21:17:00Z", "copyright": "The data included in this document is from www.openstreetmap.org. The data is made available under ODbL."}, "elements": [{"type": "node", "id": 858085010, "lat": 59.3793988, "lon": 13.4990477, "tags": {"amenity": "bank", "atm": "yes", "branch": "Karlstad", "brand": "SEB", "brand:wikidata": "Q975655", "brand:wikipedia": "en:SEB Group", "check_date": "2023-06-05", "name": "SEB", "wheelchair": "limited"}}, {"type": "node", "id": 861341896, "lat": 59.3803381, "lon": 13.5016244, "tags": {"amenity": "atm", "cash_in": "no", "check_date": "2023-06-15", "currency:SEK": "yes", "drive_through": "no", "operator": "Handelsbanken"}}, {"type": "node", "id": 871256779, "lat": 59.3248771, "lon": 13.4671024, "tags": {"amenity": "atm", "operator": "Swedbank"}}, {"type": "node", "id": 895821782, "lat": 59.3803313, "lon": 13.5033069, "tags": {"amenity": "bank", "brand": "Nordea", "brand:wikidata": "Q1123823", "brand:wikipedia": "en:Nordea", "check_date": "2023-06-12", "name": "Nordea", "opening_hours": "Mo-Fr 10:00-13:00", "operator": "Nordea", "wheelchair": "yes"}}, {"type": "node", "id": 897668919, "lat": 59.3813768, "lon": 13.5045935, "tags": {"amenity": "bank", "brand": "Swedbank", "brand:wikidata": "Q1145493", "brand:wikipedia": "en:Swedbank", "name": "Swedbank", "opening_hours": "Mo-We,Fr 10:00-13:00,10:00-18:00", "wheelchair": "yes"}}, {"type": "node", "id": 897668958, "lat": 59.3783316, "lon": 13.4252774, "tags": {"amenity": "atm", "cash_in": "yes", "check_date": "2023-06-26", "operator": "Bankomat AB", "wheelchair": "yes"}}, {"type": "node", "id": 897668977, "lat": 59.3762966, "lon": 13.4278594, "tags": {"amenity": "atm", "cash_in": "no", "check_date": "2023-06-25", "operator": "ICA Banken", "wheelchair": "yes"}}, {"type": "node", "id": 898251878, "lat": 59.3803643, "lon": 13.5015729, "tags": {"amenity": "bank", "brand": "Handelsbanken", "brand:wikidata": "Q1421630", "brand:wikipedia": "en:Handelsbanken", "level": "0", "name": "Handelsbanken", "operator": "Handelsbanken"}}, {"type": "node", "id": 898251893, "lat": 59.3787138, "lon": 13.5044063, "tags": {"amenity": "bank", "branch": "Karlstad", "brand": "Danske Bank", "brand:wikidata": "Q1636974", "brand:wikipedia": "en:Danske Bank", "name": "Danske Bank", "wheelchair": "yes"}}, {"type": "node", "id": 1200556526, "lat": 59.3793239, "lon": 13.5030594, "tags": {"amenity": "bank", "name": "L\u00e4nsf\u00f6rs\u00e4kringar"}}, {"type": "node", "id": 3799267328, "lat": 59.3861041, "lon": 13.47905, "tags": {"amenity": "atm", "brand": "Handelsbanken", "operator": "Handelsbanken"}}, {"type": "node", "id": 6578925292, "lat": 59.3798583, "lon": 13.5000759, "tags": {"amenity": "atm", "cash_in": "no", "check_date": "2023-06-03", "opening_hours": "Mo-Fr 10:00-19:00; Sa 10:00-17:00; Su 12:00-16:00", "operator": "Bankomat AB"}}, {"type": "node", "id": 7606746298, "lat": 59.4029596, "lon": 13.5711027, "tags": {"amenity": "atm", "cash_in": "no", "check_date": "2023-06-15", "currency:SEK": "yes", "drive_through": "no", "operator": "Bankomat AB"}}, {"type": "node", "id": 8278604575, "lat": 59.3846974, "lon": 13.4636237, "tags": {"addr:city": "Karlstad", "addr:country": "SE", "addr:housenumber": "21", "addr:postcode": "653 44", "addr:street": "Petersbergsgatan", "amenity": "atm", "cash_in": "no", "check_date": "2023-06-18", "operator": "Bankomat AB"}}, {"type": "node", "id": 11018079105, "lat": 59.3787404, "lon": 13.4247615, "tags": {"amenity": "atm", "level": "0"}}]}