{"version": 0.6, "generator": "Overpass API 0.7.61.5 4133829e", "osm3s": {"timestamp_osm_base": "2024-03-14T22:11:15Z", "copyright": "The data included in this document is from www.openstreetmap.org. The data is made available under ODbL."}, "elements": [{"type": "node", "id": 497268962, "lat": 58.480237, "lon": 16.3237395, "tags": {"amenity": "bank", "brand": "Swedbank", "brand:wikidata": "Q1145493", "brand:wikipedia": "sv:Swedbank", "name": "Swedbank"}}, {"type": "node", "id": 765664737, "lat": 58.6016522, "lon": 16.2457566, "tags": {"amenity": "atm", "check_date": "2022-08-07", "operator": "Kontanten AB"}}, {"type": "node", "id": 1028596276, "lat": 58.5726004, "lon": 16.2089021, "tags": {"amenity": "atm"}}, {"type": "node", "id": 1108877884, "lat": 58.5872451, "lon": 16.1913016, "tags": {"addr:city": "Norrk\u00f6ping", "addr:country": "SE", "addr:housenumber": "34", "addr:postcode": "602 32", "addr:street": "Olai Kyrkogata", "amenity": "bank", "atm": "yes", "brand": "Swedbank", "brand:wikidata": "Q1145493", "brand:wikipedia": "sv:Swedbank", "name": "Swedbank", "opening_hours": "Mo-We, Fr 10:00-15:00; Th 10:00-18:00", "phone": "+46 771-22 11 22", "website": "https://www.swedbank.se/"}}, {"type": "node", "id": 1108884411, "lat": 58.5861011, "lon": 16.1890734, "tags": {"addr:city": "Norrk\u00f6ping", "addr:country": "SE", "addr:housenumber": "64", "addr:postcode": "602 32", "addr:street": "Drottninggatan", "amenity": "bank", "atm": "yes", "brand": "Nordea", "brand:wikidata": "Q1123823", "brand:wikipedia": "sv:Nordea", "contact:phone": "+46-771224488", "name": "Nordea"}}, {"type": "node", "id": 1313226938, "lat": 58.5868616, "lon": 16.1891507, "tags": {"addr:city": "Norrk\u00f6ping", "addr:country": "SE", "addr:housenumber": "49", "addr:street": "Drottninggatan", "amenity": "bank", "atm": "yes", "brand": "SEB", "brand:wikidata": "Q975655", "brand:wikipedia": "sv:Skandinaviska Enskilda Banken", "name": "SEB", "opening_hours": "Mo-Fr 10:00-15:00"}}, {"type": "node", "id": 1313237938, "lat": 58.5871125, "lon": 16.1898628, "tags": {"amenity": "atm", "brand": "Bankomat", "brand:wikipedia": "sv:Bankomat", "fee": "no", "fixme": "atm fortfarande kvar?", "operator": "Bankomat AB"}}, {"type": "node", "id": 1806393577, "lat": 58.4805556, "lon": 16.3222302, "tags": {"amenity": "atm", "brand": "Bankomat", "brand:wikipedia": "sv:Bankomat", "check_date": "2022-08-06", "operator": "Bankomat AB"}}, {"type": "node", "id": 3172475469, "lat": 58.5718722, "lon": 16.2079241, "tags": {"amenity": "bank", "brand": "Swedbank", "brand:wikidata": "Q1145493", "brand:wikipedia": "sv:Swedbank", "contact:phone": "+46 11 289 350", "name": "Swedbank", "opening_hours": "Mo-Fr 10:00-13:00", "wheelchair": "yes"}}, {"type": "node", "id": 4108212203, "lat": 58.5862024, "lon": 16.1907294, "tags": {"amenity": "atm"}}, {"type": "node", "id": 4108801190, "lat": 58.5744895, "lon": 16.2014361, "tags": {"amenity": "atm", "opening_hours": "24/7"}}, {"type": "node", "id": 4126761095, "lat": 58.5878222, "lon": 16.1934781, "tags": {"amenity": "atm", "opening_hours": "24/7"}}, {"type": "node", "id": 4225222591, "lat": 58.5832458, "lon": 16.2342184, "tags": {"amenity": "atm", "opening_hours": "24/7"}}, {"type": "node", "id": 4294242289, "lat": 58.5806381, "lon": 16.2157517, "tags": {"amenity": "bank", "brand": "Handelsbanken", "brand:wikidata": "Q1421630", "brand:wikipedia": "sv:Handelsbanken", "name": "Handelsbanken", "opening_hours": "Mo, Th 08:00-16:00; Tu 10:00-18:00; We, Fr 10:00-16:00", "website": "https://www.handelsbanken.se/fjarilsgatan"}}]}