{"version": 0.6, "generator": "Overpass API 0.7.61.5 4133829e", "osm3s": {"timestamp_osm_base": "2024-03-14T21:59:00Z", "copyright": "The data included in this document is from www.openstreetmap.org. The data is made available under ODbL."}, "elements": [{"type": "node", "id": 471384491, "lat": 56.1497885, "lon": 13.7514177, "tags": {"amenity": "restaurant", "name": "Stinsen", "wheelchair": "limited"}}, {"type": "node", "id": 477083792, "lat": 56.2506777, "lon": 14.0705865, "tags": {"addr:country": "SE", "addr:housenumber": "5", "addr:street": "Gr\u00e4nsgatan", "amenity": "restaurant", "contact:phone": "+464447100", "cuisine": "pizza", "name": "Broby Restaurang & Pizzeria"}}, {"type": "node", "id": 497186612, "lat": 56.2552804, "lon": 14.0776799, "tags": {"amenity": "cafe", "name": "Caf\u00e9 Linnea"}}, {"type": "node", "id": 516027762, "lat": 56.1437336, "lon": 13.7734882, "tags": {"amenity": "restaurant", "name": "Zuperbowl", "sport": "10pin"}}, {"type": "node", "id": 791052360, "lat": 56.1183874, "lon": 13.8259077, "tags": {"amenity": "cafe", "name": "Tykarpsgrottans kaffestuga", "opening_hours": "Mo-Fr 10:30-16:00; Sa,Su 11:00-15:30"}}, {"type": "node", "id": 1139022485, "lat": 56.1540518, "lon": 13.7655737, "tags": {"amenity": "restaurant", "check_date": "2024-03-04", "cuisine": "pizza", "name": "Pizzeria Valentino", "opening_hours": "Mo-Fr 11:00-21:00; Sa-Su 12:00-21:00", "phone": "+46-451-80009", "wheelchair": "no"}}, {"type": "node", "id": 1623830180, "lat": 56.1587647, "lon": 13.7646136, "tags": {"amenity": "restaurant", "check_date": "2023-11-09", "name": "The Crown", "toilets:wheelchair": "no", "wheelchair": "no"}}, {"type": "node", "id": 2171064963, "lat": 56.1540569, "lon": 13.759826, "tags": {"amenity": "restaurant", "name": "Restaurang Farozon", "wheelchair": "yes"}}, {"type": "node", "id": 2182450325, "lat": 56.1599835, "lon": 13.7695779, "tags": {"amenity": "restaurant", "check_date": "2024-01-13", "cuisine": "pizza", "name": "Nora's Restaurang & Pizzeria", "opening_hours": "11:00-15:00,16:00-21:00", "phone": "+46 451 12 33 0", "wheelchair": "limited"}}, {"type": "node", "id": 2502517304, "lat": 56.3782017, "lon": 13.9921923, "tags": {"addr:city": "Osby", "addr:postcode": "28332", "addr:street": "Tryckerigatan", "amenity": "restaurant", "name": "Ving\u00e5rden", "phone": "+46 479 152 80", "website": "https://vingarden.n.nu/", "wheelchair": "yes"}}, {"type": "node", "id": 4269952426, "lat": 56.1590596, "lon": 13.7669018, "tags": {"amenity": "restaurant", "check_date": "2023-04-29", "name": "Casablanca", "toilets:wheelchair": "no", "wheelchair": "limited"}}, {"type": "node", "id": 4269952427, "lat": 56.1644679, "lon": 13.7583793, "tags": {"amenity": "restaurant", "name": "Pizzeria Montenegro", "wheelchair": "yes"}}, {"type": "node", "id": 4269980001, "lat": 56.1583407, "lon": 13.7652968, "tags": {"addr:city": "H\u00e4ssleholm", "addr:country": "SE", "addr:housenumber": "1", "addr:postcode": "281 31", "addr:street": "Stortorget", "addr:unit": "1", "amenity": "cafe", "check_date": "2023-01-14", "name": "Madrix", "opening_hours": "Mo-Fr 08:30-18:30; Sa 08:30-16:30; Su 09:30-16:30", "outdoor_seating": "yes", "payment:mastercard": "yes", "payment:visa": "yes", "toilets:wheelchair": "no", "wheelchair": "limited"}}, {"type": "node", "id": 4269985795, "lat": 56.153928, "lon": 13.7690567, "tags": {"amenity": "restaurant", "check_date": "2023-01-02", "name": "Pizzeria No 1", "phone": "+46 451 43 82 2", "toilets:wheelchair": "no", "wheelchair": "limited"}}, {"type": "node", "id": 4537633492, "lat": 56.1584221, "lon": 13.7661595, "tags": {"amenity": "restaurant", "check_date": "2023-04-29", "cuisine": "sushi", "name": "Katsu Sushi", "opening_hours": "Mo-Fr 11:00-20:00; Sa 12:00-20:00"}}, {"type": "node", "id": 4557470783, "lat": 56.1973767, "lon": 13.7475955, "tags": {"addr:country": "SE", "addr:housenumber": "7", "addr:postcode": "281 95", "addr:street": "H\u00e4ssleholmsv\u00e4gen", "amenity": "restaurant", "cuisine": "indian;pizza", "name": "Pak-Indisk Restaurang & Pizzeria", "opening_hours": "Mo-Th 11:00-21:00; Fr 11:00-22:00; Sa-Su 12:00-22:00", "phone": "+46763081015", "website": "https://pakindisk.com"}}, {"type": "node", "id": 5714859155, "lat": 56.2140126, "lon": 13.8469644, "tags": {"amenity": "restaurant", "cuisine": "pizza", "name": "Pizzeria Ballingsl\u00f6v"}}, {"type": "node", "id": 5714859157, "lat": 56.2874348, "lon": 13.9344352, "tags": {"amenity": "restaurant"}}, {"type": "node", "id": 5714859168, "lat": 56.2861061, "lon": 13.9363262, "tags": {"amenity": "restaurant", "cuisine": "pizza", "name": "Pizzeria Allegra", "opening_hours": "Mo-Th 16:00-22:00; Fr 15:00-22:00; Sa,Su 12:00-22:00"}}, {"type": "node", "id": 5714913190, "lat": 56.1584858, "lon": 13.7649854, "tags": {"amenity": "cafe", "cuisine": "bubble_tea", "name": "Bubble Tea", "opening_hours": "Mo-Fr 11:00-19:00; Sa 11:00-17:00; Su off"}}, {"type": "node", "id": 5714913192, "lat": 56.1580864, "lon": 13.7647587, "tags": {"amenity": "restaurant", "check_date": "2023-01-28", "name": "Fred's Restaurang"}}, {"type": "node", "id": 5714913196, "lat": 56.1575671, "lon": 13.7649961, "tags": {"amenity": "cafe", "check_date": "2023-01-28", "name": "Bj\u00e4rnors Konditori", "opening_hours": "Mo-Fr 07:00-18:00; Sa 08:00-15:00", "payment:mastercard": "yes", "payment:visa": "yes", "wheelchair": "yes"}}, {"type": "node", "id": 5714913200, "lat": 56.1582781, "lon": 13.7642598, "tags": {"amenity": "cafe", "check_date": "2023-01-28", "name": "Lial Cafe", "opening_hours": "Mo-Fr 09:00-22:00; Sa 10:00-23:00; Su 11:00-23:00"}}, {"type": "node", "id": 5714913206, "lat": 56.1579092, "lon": 13.7646559, "tags": {"amenity": "cafe", "brand": "Espresso House", "brand:wikidata": "Q10489162", "brand:wikipedia": "sv:Espresso House", "check_date": "2023-01-28", "cuisine": "coffee_shop", "name": "Espresso House", "opening_hours": "Mo-Su 08:00-19:00", "payment:mastercard": "yes", "payment:visa": "yes", "takeaway": "yes", "wheelchair": "yes"}}, {"type": "node", "id": 5714913207, "lat": 56.1579241, "lon": 13.7636778, "tags": {"amenity": "cafe", "brand": "Espresso House", "brand:wikidata": "Q10489162", "brand:wikipedia": "sv:Espresso House", "check_date": "2024-01-13", "cuisine": "coffee_shop", "name": "Espresso House", "opening_hours": "Mo-Fr 05:30-19:00; Sa-Su 08:00-17:00", "takeaway": "yes"}}, {"type": "node", "id": 6070694520, "lat": 56.1618517, "lon": 13.7621816, "tags": {"amenity": "restaurant", "cuisine": "indian", "delivery": "yes", "name": "Tandoori Lounge", "outdoor_seating": "no", "phone": "+46765660456"}}, {"type": "node", "id": 6252355503, "lat": 56.1602787, "lon": 13.7582588, "tags": {"amenity": "restaurant", "name": "Pizzeria Parenco"}}, {"type": "node", "id": 8866551836, "lat": 56.382745, "lon": 13.9973998, "tags": {"amenity": "restaurant", "name": "King Dragon"}}, {"type": "node", "id": 8866557548, "lat": 56.3822604, "lon": 13.9969962, "tags": {"amenity": "restaurant", "name": "Pizzeria Tre Kronor", "opening_hours": "Mo-Th, Su 11:00-21:00; Fr, Sa 11:00-22:00", "phone": "+46479537626"}}, {"type": "node", "id": 9863928518, "lat": 56.1555919, "lon": 13.7592532, "tags": {"amenity": "restaurant", "cuisine": "asian", "name": "Tasty Garden", "website": "https://www.tastygarden.se"}}, {"type": "node", "id": 9863928617, "lat": 56.1556888, "lon": 13.7587311, "tags": {"amenity": "restaurant", "cuisine": "italian_pizza", "name": "Pizzeria Milano"}}, {"type": "node", "id": 9863931017, "lat": 56.1555486, "lon": 13.7595234, "tags": {"amenity": "restaurant", "cuisine": "pizza", "name": "H\u00e4ssleholm Pizzeria"}}, {"type": "node", "id": 9937204127, "lat": 56.3783277, "lon": 13.9994252, "tags": {"amenity": "cafe", "name": "Paus"}}, {"type": "node", "id": 9981585571, "lat": 56.1652226, "lon": 13.7880186, "tags": {"amenity": "restaurant", "check_date": "2022-08-27", "name": "Linea & Basilika", "wheelchair": "yes"}}, {"type": "node", "id": 9981585572, "lat": 56.1652356, "lon": 13.788049, "tags": {"amenity": "restaurant", "check_date": "2022-08-27", "cuisine": "sushi", "name": "A&M Sushi Bar", "opening_hours": "11:00-21:00", "wheelchair": "yes"}}, {"type": "node", "id": 10063179817, "lat": 56.1561445, "lon": 13.7722923}, {"type": "node", "id": 10063179818, "lat": 56.1560802, "lon": 13.7726008}, {"type": "node", "id": 10063179917, "lat": 56.1560074, "lon": 13.7725519}, {"type": "node", "id": 10063180017, "lat": 56.1560717, "lon": 13.7722434}, {"type": "node", "id": 10103004620, "lat": 56.1627274, "lon": 13.7605885, "tags": {"amenity": "restaurant", "check_date": "2022-12-12", "name": "Argentinas K\u00f6k", "opening_hours": "Mo-Fr 11:30-14:00", "payment:mastercard": "yes", "payment:visa": "yes"}}, {"type": "node", "id": 10300221691, "lat": 56.1572316, "lon": 13.7668664, "tags": {"amenity": "restaurant", "check_date": "2023-12-11", "cuisine": "asian", "name": "Wok House", "opening_hours": "Mo-Th 11:00-21:00; Fr 11:00-22:00; Sa 12:00-22:00", "phone": "+46 451 82 00 0"}}, {"type": "node", "id": 10554788969, "lat": 56.1576105, "lon": 13.7663019, "tags": {"amenity": "restaurant", "brand": "Bishops Arms", "brand:wikidata": "Q10430084", "check_date": "2023-01-14", "name": "The Bishops Arms", "opening_hours": "Mo,Tu 17:00-21:00, We,Th 16:00-23:00, Fr 15:00-01:00, Sa 13:00-01:00, Su 16:00-22:00", "website": "https://www.bishopsarms.com/vara-pubar/goteborg/plaza/"}}, {"type": "node", "id": 11235740393, "lat": 56.1571729, "lon": 13.7637165, "tags": {"amenity": "restaurant", "check_date": "2023-10-03", "name": "Harrys", "opening_hours": "Mo-Tu 11:30-14:00,16:00-22:00; We-Th 11:30-14:00,16:00-23:00; Fr 11:30-14:00,16:00-24:00; Sa 16:00-24:00", "wheelchair": "yes"}}, {"type": "node", "id": 11409559307, "lat": 56.1572203, "lon": 13.7669333, "tags": {"amenity": "restaurant", "check_date": "2023-12-11", "cuisine": "asian", "name": "Sankou", "opening_hours": "Mo-Fr 11:00-20:30; Sa-Su 12:00-20:30"}}, {"type": "way", "id": 1099009411, "nodes": [10063180017, 10063179917, 10063179818, 10063179817, 10063180017], "tags": {"amenity": "cafe", "building": "service", "building:levels": "2", "contact:facebook": "https://www.facebook.com/birkenscafeochkuriosa/", "contact:instagram": "https://www.instagram.com/birkenscafeochkuriosa/", "name": "Hembygdsparkens cafe", "opening_hours": "We, Th, Fr, Sa, Su 12:15-17:00", "operator": "Birk\u00e9ns Caf\u00e9 & Kuriosa", "outdoor_seating": "yes", "website": "https://www.facebook.com/birkenscafeochkuriosa/"}}]}