{"version": 0.6, "generator": "Overpass API 0.7.61.5 4133829e", "osm3s": {"timestamp_osm_base": "2024-03-14T21:59:00Z", "copyright": "The data included in this document is from www.openstreetmap.org. The data is made available under ODbL."}, "elements": [{"type": "node", "id": 427648412, "lat": 59.3348128, "lon": 15.5297025, "tags": {"amenity": "restaurant", "name": "Tuydouras cafe"}}, {"type": "node", "id": 447382873, "lat": 59.3815045, "lon": 15.9434904, "tags": {"amenity": "cafe", "name": "Hj\u00e4lmare kanalkaf\u00e9"}}, {"type": "node", "id": 635807860, "lat": 59.5217471, "lon": 15.9737108, "tags": {"amenity": "restaurant", "cuisine": "chinese", "name": "Restaurang Xuan", "opening_hours": "11:00-21:00"}}, {"type": "node", "id": 759466016, "lat": 59.3976964, "lon": 15.7129464, "tags": {"amenity": "restaurant", "name": "H\u00f6gsj\u00f6 w\u00e4rdshus"}}, {"type": "node", "id": 810703438, "lat": 59.3933979, "lon": 15.8388021, "tags": {"addr:city": "Arboga", "addr:country": "SE", "addr:housenumber": "10", "addr:postcode": "73230", "addr:street": "Stora torget", "amenity": "cafe", "name": "Caf\u00e9 Centrum", "opening_hours": "Mo-Th 09:00-18:00; Fr-Su 09:00-16:00", "phone": "+46 589 10150"}}, {"type": "node", "id": 810716049, "lat": 59.4356455, "lon": 16.1387516, "tags": {"amenity": "cafe", "fixme": "Addera namn p\u00e5 caf\u00e9"}}, {"type": "node", "id": 859503865, "lat": 59.394516, "lon": 15.8379183, "tags": {"addr:city": "Arboga", "addr:street": "Nygatan", "amenity": "restaurant", "capacity": "100", "cuisine": "regional", "name": "Stadsk\u00e4llaren"}}, {"type": "node", "id": 859503866, "lat": 59.3931552, "lon": 15.8469909, "tags": {"addr:city": "Arboga", "addr:country": "SE", "addr:housenumber": "17", "addr:street": "Herrg\u00e5rdsgatan", "amenity": "restaurant", "name": "Pizzeria Cicilia"}}, {"type": "node", "id": 859503867, "lat": 59.3984644, "lon": 15.8541792, "tags": {"amenity": "restaurant", "cuisine": "pizza", "name": "Wasa"}}, {"type": "node", "id": 859503868, "lat": 59.3961704, "lon": 15.8472269, "tags": {"amenity": "restaurant", "name": "Wah To"}}, {"type": "node", "id": 859503882, "lat": 59.3938947, "lon": 15.8403135, "tags": {"addr:city": "Arboga", "addr:country": "SE", "addr:housenumber": "4", "addr:street": "R\u00e5dhusgatan", "amenity": "restaurant", "name": "Restaurang Athena", "phone": "+46 589 10145", "website": "http://athenaarboga.se/"}}, {"type": "node", "id": 895381469, "lat": 59.3517474, "lon": 15.6662637, "tags": {"amenity": "restaurant", "name": "G\u00f6tlunda V\u00e4rdshus"}}, {"type": "node", "id": 1200692480, "lat": 59.4268636, "lon": 15.8275896, "tags": {"amenity": "restaurant", "name": "Dinners"}}, {"type": "node", "id": 1704477546, "lat": 59.3146176, "lon": 15.4074363, "tags": {"amenity": "restaurant", "cuisine": "pizza", "name": "Tango Pizzeria & Restaurang"}}, {"type": "node", "id": 1707169766, "lat": 59.3179347, "lon": 15.4009131}, {"type": "node", "id": 1707170156, "lat": 59.3180845, "lon": 15.4009891}, {"type": "node", "id": 1707170385, "lat": 59.3179537, "lon": 15.4007699}, {"type": "node", "id": 1707170420, "lat": 59.3181034, "lon": 15.400846}, {"type": "node", "id": 1730667277, "lat": 59.2834194, "lon": 15.4115526}, {"type": "node", "id": 1730667298, "lat": 59.2833978, "lon": 15.4113295}, {"type": "node", "id": 1730667317, "lat": 59.2834989, "lon": 15.4115231}, {"type": "node", "id": 1730667320, "lat": 59.2834773, "lon": 15.4113}, {"type": "node", "id": 2288537045, "lat": 59.3964665, "lon": 15.8869468, "tags": {"amenity": "restaurant", "name": "Rasta"}}, {"type": "node", "id": 2441911694, "lat": 59.2789424, "lon": 15.9041207, "tags": {"amenity": "restaurant"}}, {"type": "node", "id": 2791425972, "lat": 59.1481774, "lon": 16.0668223, "tags": {"amenity": "restaurant", "cuisine": "pizza"}}, {"type": "node", "id": 2925231105, "lat": 59.1325123, "lon": 15.8112603}, {"type": "node", "id": 2925231106, "lat": 59.132486, "lon": 15.8115033}, {"type": "node", "id": 2925231107, "lat": 59.1324833, "lon": 15.8109434}, {"type": "node", "id": 2925231108, "lat": 59.132508, "lon": 15.8111727}, {"type": "node", "id": 2925231110, "lat": 59.1325561, "lon": 15.8111637}, {"type": "node", "id": 2925231111, "lat": 59.1325561, "lon": 15.8112743}, {"type": "node", "id": 2925231113, "lat": 59.1326778, "lon": 15.8113135}, {"type": "node", "id": 2925231114, "lat": 59.132679, "lon": 15.8111129}, {"type": "node", "id": 2925231115, "lat": 59.1327659, "lon": 15.8115885}, {"type": "node", "id": 2925231116, "lat": 59.132785, "lon": 15.8108348}, {"type": "node", "id": 2925231118, "lat": 59.1327884, "lon": 15.8113511}, {"type": "node", "id": 2925231119, "lat": 59.1328066, "lon": 15.8110707}, {"type": "node", "id": 3163815159, "lat": 59.1477422, "lon": 16.0456894, "tags": {"amenity": "restaurant", "name": "Julita W\u00e4rdshus", "website": "https://www.julitawardshus.se/"}}, {"type": "node", "id": 3163815467, "lat": 59.1481791, "lon": 16.0434406, "tags": {"amenity": "cafe", "name": "Tr\u00e4dg\u00e5rdscafe", "outdoor_seating": "yes"}}, {"type": "node", "id": 3358925196, "lat": 59.433938, "lon": 15.5938632}, {"type": "node", "id": 3358925197, "lat": 59.4339617, "lon": 15.5935818}, {"type": "node", "id": 3358925198, "lat": 59.4340775, "lon": 15.5939077}, {"type": "node", "id": 3358925200, "lat": 59.4340824, "lon": 15.5938453}, {"type": "node", "id": 3398991452, "lat": 59.4372902, "lon": 15.5929092, "tags": {"amenity": "restaurant", "cuisine": "pizza;burger;kebab", "name": "Bj\u00f6rklida Grill & Pizzeria", "phone": "+46-581-62 05 62"}}, {"type": "node", "id": 3595903725, "lat": 59.4267267, "lon": 15.8299245, "tags": {"addr:city": "Arboga", "addr:housenumber": "3c", "addr:postcode": "73250", "addr:street": "Burskapsv\u00e4gen", "amenity": "restaurant", "cuisine": "burger;pizza", "name": "Br\u00f6dernas", "opening_hours": "Su-Th 11:00-20:00; Fr-Sa 11:00-21:00", "phone": "0589356300", "website": "https://www.brodernas.nu"}}, {"type": "node", "id": 3684728274, "lat": 59.4273865, "lon": 16.1003744, "tags": {"amenity": "restaurant", "name": "Thor Mod\u00e9ens g\u00e4stgifveri"}}, {"type": "node", "id": 4067734081, "lat": 59.1513983, "lon": 15.4801007}, {"type": "node", "id": 4067734084, "lat": 59.1514629, "lon": 15.4805352}, {"type": "node", "id": 4067734085, "lat": 59.1514853, "lon": 15.4800515}, {"type": "node", "id": 4067734096, "lat": 59.1515499, "lon": 15.480486}, {"type": "node", "id": 4142825853, "lat": 59.394819, "lon": 15.8395344, "tags": {"addr:city": "Arboga", "addr:country": "SE", "addr:housenumber": "38", "addr:street": "Nygatan", "addr:unit": "A", "amenity": "restaurant", "cuisine": "pizza", "name": "Mariak\u00e4llaren"}}, {"type": "node", "id": 4142825864, "lat": 59.3931562, "lon": 15.8388822, "tags": {"addr:city": "Arboga", "addr:country": "SE", "addr:housenumber": "8", "addr:street": "Kapellgatan", "amenity": "restaurant", "name": "Restaurang \u00c5g\u00e5rden", "opening_hours": "Mo,Tu 11:00-13:30,17:30-22:00; We,Th 11:00-13:30,17:30-22:00; Fr 11:00-13:30,17:30-01:00; Sa 17:30-01:00", "phone": "+46 589 10246", "website": "https://restaurangagarden.com/"}}, {"type": "node", "id": 4142825865, "lat": 59.3937188, "lon": 15.8426013, "tags": {"amenity": "cafe", "cuisine": "coffee; ice_cream", "internet_access": "yes", "name": "Engelbrekts Caf\u00e9", "opening_hours": "Mo-Th 09:00-17:00; Fr 09:00-20:00; Sa 10:00-20:00; Su 10:00-16:00", "outdoor_seating": "yes", "wheelchair": "yes"}}, {"type": "node", "id": 4142825869, "lat": 59.3948475, "lon": 15.8404217, "tags": {"addr:city": "Arboga", "addr:country": "SE", "addr:housenumber": "4B", "addr:postcode": "73230", "addr:street": "J\u00e4rntorgsgatan", "air_conditioning": "no", "amenity": "restaurant", "contact:phone": "+46 70 254 7885", "cuisine": "asian", "description": "Original thai mat med de b\u00e4sta r\u00e5varorna", "indoor_seating": "yes", "name": "Pims Hot&Spicy AB", "opening_hours": "Mo-We 11:00-18:00; Th-Sa 11:00-19:00; Su off", "outdoor_seating": "no", "smoking": "no", "takeaway": "no", "wheelchair": "yes"}}, {"type": "node", "id": 4142825870, "lat": 59.394099, "lon": 15.8387163, "tags": {"amenity": "cafe", "cuisine": "regional", "name": "Sallad & sm\u00f6rg\u00e5st\u00e5rtsh\u00f6rnan"}}, {"type": "node", "id": 4142825872, "lat": 59.3952072, "lon": 15.8413451, "tags": {"addr:city": "Arboga", "addr:street": "Nygatan", "amenity": "cafe", "name": "H\u00e5-Ges br\u00f6d"}}, {"type": "node", "id": 4145116108, "lat": 59.5069561, "lon": 16.0062846, "tags": {"amenity": "bar", "name": "\u00d6gir mat & musik"}}, {"type": "node", "id": 4293292357, "lat": 59.2122046, "lon": 15.4973854, "tags": {"addr:housenumber": "2A", "addr:postcode": "71572", "addr:street": "Parkv\u00e4gen", "amenity": "restaurant", "cuisine": "pizza", "name": "Restaurang & pizzeria Mell\u00f6sa", "opening_hours": "Mo-Fr 11:00-21:00; Sa-Su 12:00-21:00", "phone": "019-33 33 70"}}, {"type": "node", "id": 4393947255, "lat": 59.1619522, "lon": 15.5262971}, {"type": "node", "id": 4393947256, "lat": 59.1619563, "lon": 15.5264819}, {"type": "node", "id": 4393947257, "lat": 59.1619891, "lon": 15.526294}, {"type": "node", "id": 4393947258, "lat": 59.1619907, "lon": 15.5263662}, {"type": "node", "id": 4393947259, "lat": 59.1619921, "lon": 15.5264788}, {"type": "node", "id": 4393947260, "lat": 59.1619933, "lon": 15.526535}, {"type": "node", "id": 4393947261, "lat": 59.1620417, "lon": 15.5263118}, {"type": "node", "id": 4393947262, "lat": 59.1620428, "lon": 15.5263618}, {"type": "node", "id": 4393947263, "lat": 59.1620855, "lon": 15.526471}, {"type": "node", "id": 4393947264, "lat": 59.1620867, "lon": 15.5265271}, {"type": "node", "id": 4393947266, "lat": 59.1621115, "lon": 15.5263059}, {"type": "node", "id": 4393947267, "lat": 59.1621151, "lon": 15.5264685}, {"type": "node", "id": 5017010360, "lat": 59.4732673, "lon": 16.0673728}, {"type": "node", "id": 5017010361, "lat": 59.4732769, "lon": 16.067099}, {"type": "node", "id": 5017010362, "lat": 59.4732368, "lon": 16.0673681}, {"type": "node", "id": 5017010363, "lat": 59.4732477, "lon": 16.0670945}, {"type": "node", "id": 5017010364, "lat": 59.4732773, "lon": 16.0670868}, {"type": "node", "id": 5017010365, "lat": 59.4732569, "lon": 16.0676715}, {"type": "node", "id": 5017010366, "lat": 59.4733335, "lon": 16.0676819}, {"type": "node", "id": 5017010367, "lat": 59.473354, "lon": 16.0670972}, {"type": "node", "id": 5397965902, "lat": 59.4269973, "lon": 16.1102729}, {"type": "node", "id": 5397965903, "lat": 59.4269134, "lon": 16.1107566}, {"type": "node", "id": 5397965904, "lat": 59.4268698, "lon": 16.1107274}, {"type": "node", "id": 5397965905, "lat": 59.4268364, "lon": 16.1109204}, {"type": "node", "id": 5397965906, "lat": 59.426861, "lon": 16.1109369}, {"type": "node", "id": 5397965907, "lat": 59.4268052, "lon": 16.1112589}, {"type": "node", "id": 5397965908, "lat": 59.4266538, "lon": 16.1111575}, {"type": "node", "id": 5397965909, "lat": 59.4267069, "lon": 16.1108513}, {"type": "node", "id": 5397965910, "lat": 59.4267335, "lon": 16.1108691}, {"type": "node", "id": 5397965911, "lat": 59.4268373, "lon": 16.1102702}, {"type": "node", "id": 5397965912, "lat": 59.4268926, "lon": 16.1103072}, {"type": "node", "id": 5397965913, "lat": 59.4269089, "lon": 16.1102136}, {"type": "node", "id": 6160970739, "lat": 59.1889507, "lon": 15.7114807}, {"type": "node", "id": 6160970740, "lat": 59.1890771, "lon": 15.7116175}, {"type": "node", "id": 6160970741, "lat": 59.1891499, "lon": 15.7113612}, {"type": "node", "id": 6160970742, "lat": 59.1890235, "lon": 15.7112244}, {"type": "node", "id": 6802881204, "lat": 59.434101, "lon": 15.5936272}, {"type": "node", "id": 6803031622, "lat": 59.3939497, "lon": 15.8955744, "tags": {"amenity": "restaurant", "cuisine": "regional", "name": "Gyllene Balken"}}, {"type": "node", "id": 8162327615, "lat": 59.1922423, "lon": 15.7134866}, {"type": "node", "id": 8162327616, "lat": 59.1922272, "lon": 15.7138017}, {"type": "node", "id": 8162345717, "lat": 59.192324, "lon": 15.7138194}, {"type": "node", "id": 8162345718, "lat": 59.1923391, "lon": 15.7135043}, {"type": "node", "id": 8916508855, "lat": 59.3958324, "lon": 15.8421528, "tags": {"amenity": "cafe", "name": "Tre Skator"}}, {"type": "node", "id": 8916557327, "lat": 59.3966539, "lon": 15.8411748, "tags": {"amenity": "cafe", "indoor_seating": "yes", "name": "Konditori Bivur Arboga", "outdoor_seating": "no"}}, {"type": "node", "id": 8931140902, "lat": 59.5126404, "lon": 15.9966361}, {"type": "node", "id": 8931140903, "lat": 59.5127115, "lon": 15.99683}, {"type": "node", "id": 8931140904, "lat": 59.5127954, "lon": 15.9967104}, {"type": "node", "id": 8931140905, "lat": 59.5127243, "lon": 15.9965166}, {"type": "node", "id": 8931140923, "lat": 59.5126034, "lon": 15.9950099}, {"type": "node", "id": 8931140924, "lat": 59.512338, "lon": 15.995378}, {"type": "node", "id": 8931140925, "lat": 59.5123995, "lon": 15.9955504}, {"type": "node", "id": 8931140926, "lat": 59.5125604, "lon": 15.9953273}, {"type": "node", "id": 8931140927, "lat": 59.5126342, "lon": 15.9955337}, {"type": "node", "id": 8931140928, "lat": 59.5127407, "lon": 15.9953946}, {"type": "node", "id": 9917644050, "lat": 59.4661486, "lon": 15.3629642, "tags": {"amenity": "restaurant", "name": "Picasso pizzeria bar kebab"}}, {"type": "node", "id": 9972004187, "lat": 59.2046182, "lon": 15.7123328, "tags": {"amenity": "cafe", "name": "Vin\u00f6ns strandservering"}}, {"type": "node", "id": 10816111934, "lat": 59.5148932, "lon": 15.9911407, "tags": {"addr:city": "K\u00f6ping", "addr:housenumber": "7", "addr:postcode": "731 32", "addr:street": "Barnhemsgatan", "addr:unit": "A", "amenity": "restaurant", "cuisine": "sushi", "name": "Sushi Bar K\u00f6ping"}}, {"type": "node", "id": 11014812305, "lat": 59.2091835, "lon": 15.5000962, "tags": {"addr:housenumber": "15", "addr:postcode": "71572", "addr:street": "M\u00e4llsav\u00e4gen", "amenity": "restaurant", "cuisine": "thai", "name": "Lilla Thai", "opening_hours": "Tu-Su 12:00-19:00", "phone": "076-196 90 09"}}, {"type": "node", "id": 11015500645, "lat": 59.5088361, "lon": 15.9996829}, {"type": "node", "id": 11015553945, "lat": 59.5088423, "lon": 15.9997549, "tags": {"amenity": "cafe", "cuisine": "bistro;fika;cafe", "name": "Skeppshandeln"}}, {"type": "node", "id": 11015553976, "lat": 59.5089108, "lon": 15.9999434}, {"type": "node", "id": 11015553977, "lat": 59.5087503, "lon": 16.0001221}, {"type": "node", "id": 11015553978, "lat": 59.5086756, "lon": 15.9998616}, {"type": "node", "id": 11015761905, "lat": 59.4247935, "lon": 16.0935511, "tags": {"amenity": "restaurant", "cuisine": "italian_pizza;pizza", "name": "Pablo's"}}, {"type": "node", "id": 11025401045, "lat": 59.5068035, "lon": 16.0001212}, {"type": "node", "id": 11025401046, "lat": 59.5068738, "lon": 16.0002085}, {"type": "node", "id": 11025401047, "lat": 59.506815, "lon": 16.0003928}, {"type": "node", "id": 11025401048, "lat": 59.5068271, "lon": 16.0004078}, {"type": "node", "id": 11025401049, "lat": 59.5067903, "lon": 16.0005228}, {"type": "node", "id": 11025401050, "lat": 59.5067743, "lon": 16.000503}, {"type": "node", "id": 11025401051, "lat": 59.5066118, "lon": 16.0010116}, {"type": "node", "id": 11025401052, "lat": 59.5065262, "lon": 16.0009053}, {"type": "node", "id": 11025401053, "lat": 59.5066322, "lon": 16.0005735}, {"type": "node", "id": 11025401054, "lat": 59.5066467, "lon": 16.0005916}, {"type": "node", "id": 11025401055, "lat": 59.5066848, "lon": 16.0004724}, {"type": "node", "id": 11025401056, "lat": 59.5066694, "lon": 16.0004533}, {"type": "node", "id": 11025401057, "lat": 59.5067313, "lon": 16.0002595}, {"type": "node", "id": 11025401058, "lat": 59.5067514, "lon": 16.0002843}, {"type": "node", "id": 11093398049, "lat": 59.4228526, "lon": 16.0963997}, {"type": "node", "id": 11093398050, "lat": 59.4227456, "lon": 16.0962578}, {"type": "node", "id": 11093398051, "lat": 59.4227065, "lon": 16.0963714}, {"type": "node", "id": 11093398052, "lat": 59.422811, "lon": 16.0965066}, {"type": "node", "id": 11093398053, "lat": 59.4228441, "lon": 16.0964198}, {"type": "node", "id": 11355300382, "lat": 59.5133052, "lon": 15.9927335, "tags": {"amenity": "restaurant", "cuisine": "international", "name": "Krog & Co"}}, {"type": "node", "id": 11536298171, "lat": 59.1325562, "lon": 15.8112196, "tags": {"access": "permissive", "entrance": "yes"}}, {"type": "way", "id": 158535136, "nodes": [1707170420, 1707170156, 1707169766, 1707170385, 1707170420], "tags": {"addr:city": "Glanshammar", "addr:country": "SE", "addr:housenumber": "2A", "addr:postcode": "703 85", "addr:street": "Eldvallagatan", "amenity": "restaurant", "building": "yes", "name": "Restaurang Glansen"}}, {"type": "way", "id": 161065287, "nodes": [1730667320, 1730667317, 1730667277, 1730667298, 1730667320], "tags": {"amenity": "cafe", "building": "yes", "name": "\u00c4ssundet sommarcaf\u00e9", "operator": "Korpen", "wheelchair": "limited", "wheelchair:description": "Smal handikapptoalett"}}, {"type": "way", "id": 288974732, "nodes": [2925231116, 2925231107, 2925231108, 2925231110, 11536298171, 2925231111, 2925231105, 2925231106, 2925231115, 2925231118, 2925231113, 2925231114, 2925231119, 2925231116], "tags": {"amenity": "restaurant", "building": "yes", "name": "Hj\u00e4lmarg\u00e5rden"}}, {"type": "way", "id": 329067375, "nodes": [6802881204, 3358925200, 3358925198, 3358925196, 3358925197, 6802881204], "tags": {"addr:city": "Fellingsbro", "addr:country": "SE", "addr:housenumber": "22", "addr:postcode": "732 71", "addr:street": "Bergsv\u00e4gen", "amenity": "restaurant", "building": "retail", "cuisine": "pizza;sandwich", "name": "Mona Lisa"}}, {"type": "way", "id": 404483494, "nodes": [4067734085, 4067734096, 4067734084, 4067734081, 4067734085], "tags": {"amenity": "cafe", "building": "yes", "cuisine": "ice_cream", "name": "Glasscaf\u00e9t i Asker"}}, {"type": "way", "id": 441679244, "nodes": [4393947267, 4393947263, 4393947264, 4393947260, 4393947259, 4393947256, 4393947255, 4393947257, 4393947258, 4393947262, 4393947261, 4393947266, 4393947267], "tags": {"alt_name": "Odensbackens konditori", "amenity": "cafe", "building": "yes", "name": "Konditori - En bulle i ugnen", "shop": "bakery", "website": "https://enbulleiugnen.com/"}}, {"type": "way", "id": 513164918, "nodes": [5017010363, 5017010361, 5017010364, 5017010367, 5017010366, 5017010365, 5017010360, 5017010362, 5017010363], "tags": {"amenity": "cafe", "building": "commercial", "name": "Caf\u00e9 Malm\u00f6n"}}, {"type": "way", "id": 559698376, "nodes": [5397965902, 5397965903, 5397965904, 5397965905, 5397965906, 5397965907, 5397965908, 5397965909, 5397965910, 5397965911, 5397965912, 5397965913, 5397965902], "tags": {"addr:city": "Kungs\u00f6r", "addr:country": "SE", "addr:housenumber": "14", "addr:postcode": "736 36", "addr:street": "Kungsgatan", "amenity": "cafe", "building": "yes", "name": "Bagarn's Br\u00f6dbod & Caf\u00e9 i Kungs\u00f6r", "opening_hours": "Mo-Fr 08:00-18:00;Sa 09:00-15:00;Su 11:00-16:00", "outdoor_seating": "yes", "smoking": "outside", "toilets:wheelchair": "yes", "wheelchair": "yes"}}, {"type": "way", "id": 657836377, "nodes": [6160970742, 6160970741, 6160970740, 6160970739, 6160970742], "tags": {"amenity": "restaurant", "building": "yes", "name": "Vin\u00f6ns v\u00e4rdshus"}}, {"type": "way", "id": 877279754, "nodes": [8162345718, 8162345717, 8162327616, 8162327615, 8162345718], "tags": {"amenity": "cafe", "building": "yes", "name": "Caf\u00e9 V"}}, {"type": "way", "id": 965425483, "nodes": [8931140902, 8931140903, 8931140904, 8931140905, 8931140902], "tags": {"addr:housenumber": "2", "addr:street": "H\u00f6kartorget", "amenity": "restaurant", "building": "restaurant", "cuisine": "greek", "name": "Greken Souvlaki"}}, {"type": "way", "id": 965425486, "nodes": [8931140923, 8931140924, 8931140925, 8931140926, 8931140927, 8931140928, 8931140923], "tags": {"amenity": "restaurant", "brand": "Bishops Arms", "brand:wikidata": "Q10430084", "building": "yes", "name": "Bishops Arms", "website": "https://www.bishopsarms.com/vara-pubar/koping/"}}, {"type": "way", "id": 1185920010, "nodes": [11015500645, 11015553976, 11015553977, 11015553978, 11015500645], "tags": {"amenity": "cafe", "building": "yes"}}, {"type": "way", "id": 1187267820, "nodes": [11025401045, 11025401046, 11025401047, 11025401048, 11025401049, 11025401050, 11025401051, 11025401052, 11025401053, 11025401054, 11025401055, 11025401056, 11025401057, 11025401058, 11025401045], "tags": {"amenity": "restaurant", "building": "yes"}}, {"type": "way", "id": 1195236528, "nodes": [11093398049, 11093398050, 11093398051, 11093398052, 11093398053, 11093398049], "tags": {"addr:city": "Kungs\u00f6r", "addr:housenumber": "5", "addr:postcode": "73633", "addr:street": "Pr\u00e4stgatan", "amenity": "restaurant", "building": "yes", "name": "Lenas torgcaf\u00e9 & mat", "phone": "+46706811056", "website": "http://www.lenastorgcafe.se/"}}]}