{"version": 0.6, "generator": "Overpass API 0.7.61.5 4133829e", "osm3s": {"timestamp_osm_base": "2024-03-14T22:11:15Z", "copyright": "The data included in this document is from www.openstreetmap.org. The data is made available under ODbL."}, "elements": [{"type": "node", "id": 1383270914, "lat": 61.3027712, "lon": 17.0561597, "tags": {"amenity": "bank", "atm": "yes", "brand": "Handelsbanken", "brand:wikidata": "Q1421630", "brand:wikipedia": "en:Handelsbanken", "name": "Handelsbanken"}}, {"type": "node", "id": 1383278186, "lat": 61.3019727, "lon": 17.0537993, "tags": {"amenity": "bank", "atm": "yes", "brand": "Nordea", "brand:wikidata": "Q1123823", "brand:wikipedia": "en:Nordea", "name": "Nordea"}}, {"type": "node", "id": 2955174889, "lat": 60.9294076, "lon": 17.040917, "tags": {"addr:city": "Bergby", "addr:country": "SE", "addr:housenumber": "38", "addr:postcode": "81740", "addr:street": "Bergbyv\u00e4gen", "amenity": "bank", "atm": "yes", "brand": "Handelsbanken", "brand:wikidata": "Q1421630", "brand:wikipedia": "en:Handelsbanken", "contact:phone": "+46 297 60930", "contact:website": "https://www.handelsbanken.se/bergby", "name": "Handelsbanken", "opening_hours": "Mo-We 09:30-15:00; Th 09:30-17:00; Fr 09:30-15:00; Sa-Su off", "operator": "Handelsbanken"}}, {"type": "node", "id": 2955175027, "lat": 60.9293272, "lon": 17.0408015, "tags": {"amenity": "atm", "check_date": "2022-06-24", "operator": "Handelsbanken"}}, {"type": "node", "id": 6341498586, "lat": 61.3021299, "lon": 17.0541164, "tags": {"amenity": "bank", "brand": "Swedbank", "brand:wikidata": "Q1145493", "brand:wikipedia": "en:Swedbank", "name": "Swedbank"}}, {"type": "node", "id": 9862682170, "lat": 60.8907808, "lon": 16.7167478, "tags": {"amenity": "atm"}}]}