{"version": 0.6, "generator": "Overpass API 0.7.61.5 4133829e", "osm3s": {"timestamp_osm_base": "2024-03-14T22:06:11Z", "copyright": "The data included in this document is from www.openstreetmap.org. The data is made available under ODbL."}, "elements": [{"type": "node", "id": 293946297, "lat": 58.0667147, "lon": 11.8180024, "tags": {"addr:city": "Stenungsund", "addr:country": "SE", "addr:housenumber": "3", "addr:postcode": "444 30", "addr:street": "Jullen", "amenity": "clinic", "contact:phone": "+46 10 473 32 20", "healthcare": "clinic", "name": "N\u00e4rh\u00e4lsan Stenungsund v\u00e5rdcentral", "network": "V\u00e4stra G\u00f6talandsregionen", "operator": "V\u00e4stra G\u00f6talandsregionen", "website": "https://www.narhalsan.se/hitta-mottagning/stenungsund/narhalsan-stenungsund-vardcentral/"}}, {"type": "node", "id": 293946500, "lat": 58.0675105, "lon": 11.8166049, "tags": {"amenity": "pharmacy"}}, {"type": "node", "id": 452403594, "lat": 57.7942322, "lon": 11.9884369, "tags": {"amenity": "pharmacy", "brand": "Kronans Apotek", "brand:wikidata": "Q10549422", "contact:phone": "+46771450450", "dispensing": "yes", "drive_through": "no", "healthcare": "pharmacy", "name": "Kronans Apotek", "opening_hours": "Mo-Fr 09:00-18:00; Sa 10:00-14:00"}}, {"type": "node", "id": 495985842, "lat": 57.75556, "lon": 11.9271593, "tags": {"addr:city": "G\u00f6teborg", "addr:country": "SE", "addr:housenumber": "9", "addr:postcode": "41745", "addr:street": "Tuve Torg", "amenity": "pharmacy", "branch": "Tuve Torg", "brand": "Kronans Apotek", "brand:wikidata": "Q10549422", "dispensing": "yes", "drive_through": "no", "healthcare": "pharmacy", "name": "Kronans Apotek", "operator": "Kronans Apotek"}}, {"type": "node", "id": 799454672, "lat": 57.7515758, "lon": 12.0315753, "tags": {"amenity": "pharmacy", "branch": "G\u00f6teborg Kortedala", "brand": "Apoteket", "contact:phone": "+46771450450", "healthcare": "pharmacy", "name": "Apoteket Ekorren", "operator": "Apoteket AB"}}, {"type": "node", "id": 2700145726, "lat": 57.762042, "lon": 12.0410065, "tags": {"addr:city": "G\u00f6teborg", "addr:country": "SE", "addr:housenumber": "48", "addr:postcode": "415 13", "addr:street": "\u00c5rstidsgatan", "amenity": "clinic", "contact:phone": "+46 31 750 31 00", "contact:website": "http://www.kortedalavardcentral.se/", "healthcare": "clinic", "name": "N\u00f6tk\u00e4rnan Kortedala V\u00e5rdcentral och BVC", "network": "V\u00e4stra G\u00f6talandsregionen", "operator": "N\u00f6tk\u00e4rnan Kortedala V\u00e5rdcentral AB", "ownership": "private", "payment:cryptocurrencies": "no"}}, {"type": "node", "id": 2813306408, "lat": 57.8876797, "lon": 11.5878445, "tags": {"amenity": "pharmacy"}}, {"type": "node", "id": 3037281574, "lat": 58.0167108, "lon": 11.8315111, "tags": {"addr:city": "Stora H\u00f6ga", "addr:country": "SE", "addr:housenumber": "2", "addr:postcode": "444 60", "addr:street": "Stora v\u00e4gen", "amenity": "clinic", "contact:phone": "+46 10-473 35 00", "contact:website": "https://www.narhalsan.se/hitta-mottagning/stenungsund/narhalsan-stora-hoga-vardcentral/", "healthcare": "centre", "name": "N\u00e4rh\u00e4lsan Stora H\u00f6ga v\u00e5rdcentral", "network": "V\u00e4stra G\u00f6talandsregionen", "operator": "V\u00e4stra G\u00f6talandsregionen"}}, {"type": "node", "id": 3037281575, "lat": 58.0166792, "lon": 11.8318149, "tags": {"amenity": "pharmacy", "brand": "Apoteksgruppen", "name": "Apoteksgruppen"}}, {"type": "node", "id": 4340817355, "lat": 57.936456, "lon": 11.578548, "tags": {"amenity": "dentist"}}, {"type": "node", "id": 4357165895, "lat": 57.8748072, "lon": 11.9732016, "tags": {"amenity": "pharmacy", "brand": "Apotek Hj\u00e4rtat", "check_date": "2022-12-21", "contact:phone": "+46771405405", "contact:website": "https://www.apotekhjartat.se/", "dispensing": "yes", "name": "Apotek Hj\u00e4rtat", "opening_hours": "07:00-22:00", "operator": "Apotek Hj\u00e4rtat Retail AB", "owner": "ICA Gruppen AB", "wheelchair": "yes"}}, {"type": "node", "id": 4646803274, "lat": 57.8689925, "lon": 11.956288, "tags": {"addr:city": "Kung\u00e4lv", "addr:country": "SE", "addr:housenumber": "1", "addr:postcode": "442 37", "addr:street": "Nordmannagatan", "amenity": "clinic", "name": "\u00c4lvpraktiken", "opening_hours": "Mo-Fr 08:00-17:00"}}, {"type": "node", "id": 4665046494, "lat": 57.7552214, "lon": 11.9267982, "tags": {"addr:city": "G\u00f6teborg", "addr:country": "SE", "addr:housenumber": "4", "addr:postcode": "417 45", "addr:street": "Tuve Torg", "amenity": "clinic", "contact:phone": "+46 31 747 85 00", "contact:website": "https://www.narhalsan.se/", "healthcare": "clinic", "name": "N\u00e4rh\u00e4lsan Tuve v\u00e5rdcentral", "network": "V\u00e4stra G\u00f6talandsregionen", "operator": "V\u00e4stra G\u00f6talandsregionen", "payment:cryptocurrencies": "no"}}, {"type": "node", "id": 4665076893, "lat": 57.7551153, "lon": 11.9268002, "tags": {"addr:city": "G\u00f6teborg", "addr:country": "SE", "addr:housenumber": "4", "addr:postcode": "41745", "addr:street": "Tuve Torg", "amenity": "dentist", "contact:phone": "+46104418960", "contact:website": "https://www.vgregion.se/", "name": "Folktandv\u00e5rden Tuve", "opening_hours": "Mo-Th 07:00-19:00; Fr 07:00-17:00"}}, {"type": "node", "id": 4905980921, "lat": 57.8039583, "lon": 12.0314261, "tags": {"amenity": "dentist", "contact:phone": "+46-313304151", "contact:website": "http://Maxhalsa.com", "name": "Dima Jasser tandl\u00e4karmottagning", "name:ar": "\u0637\u0628\u064a\u0628 \u0623\u0633\u0646\u0627\u0646 (\u062f\u0643\u062a\u0648\u0631\u0629 \u062f\u064a\u0645\u0629 \u062c\u0627\u0633\u0631)", "name:en": "Dental doctor (Dr. Dima Jasser)", "name:sv": "Maxh\u00e4lsa tandl\u00e4kare (Dr.Dima Jasser)", "opening_hours": "Mo-Tu, Th-Fr 11:00-19:00"}}, {"type": "node", "id": 5056792698, "lat": 57.861194, "lon": 11.9180002, "tags": {"amenity": "pharmacy"}}, {"type": "node", "id": 5258694195, "lat": 57.88877, "lon": 11.9505179, "tags": {"addr:city": "Kung\u00e4lv", "addr:country": "SE", "addr:housenumber": "58", "addr:postcode": "442 40", "addr:street": "Rollsbov\u00e4gen", "alt_name": "N\u00e4rh\u00e4lsan Solg\u00e4rde barnav\u00e5rdscental", "amenity": "clinic", "contact:phone": "+46 10 473 38 30", "contact:website": "https://www.narhalsan.se/hitta-mottagning/kungalv/narhalsan-solgarde-vardcentral/", "emergency": "no", "healthcare": "centre", "name": "N\u00e4rh\u00e4lsan Solg\u00e4rde v\u00e5rdcentral", "network": "V\u00e4stra G\u00f6talandsregionen", "operator": "V\u00e4stra G\u00f6talandsregionen", "website": "https://www.narhalsan.se/hitta-mottagning/kungalv/narhalsan-solgarde-vardcentral/"}}, {"type": "node", "id": 5368788790, "lat": 57.8461314, "lon": 11.7957062, "tags": {"addr:city": "K\u00e4rna", "addr:country": "SE", "addr:housenumber": "1C", "addr:postcode": "442 70", "addr:street": "Kaprifolv\u00e4gen", "amenity": "clinic", "branch": "K\u00e4rna", "contact:phone": "+46 303 379 700", "healthcare": "clinic", "name": "K\u00e4rna v\u00e5rdcentral", "network": "V\u00e4stra G\u00f6talandsregionen", "operator": "V\u00e5rdcentralen Kusten", "owner": "Praktikertj\u00e4nst AB", "ownership": "private"}}, {"type": "node", "id": 5516389747, "lat": 57.8768742, "lon": 11.9681346}, {"type": "node", "id": 5516389748, "lat": 57.8772593, "lon": 11.967283}, {"type": "node", "id": 5516389749, "lat": 57.8792555, "lon": 11.9678836}, {"type": "node", "id": 5516389751, "lat": 57.8795184, "lon": 11.9683465}, {"type": "node", "id": 5516389752, "lat": 57.8793957, "lon": 11.9691727}, {"type": "node", "id": 5516389753, "lat": 57.879193, "lon": 11.9701662}, {"type": "node", "id": 5516524100, "lat": 57.8779083, "lon": 11.9656375}, {"type": "node", "id": 5516524101, "lat": 57.8775553, "lon": 11.9660385}, {"type": "node", "id": 5599719747, "lat": 57.8793027, "lon": 11.9698224}, {"type": "node", "id": 5599719748, "lat": 57.8792825, "lon": 11.9699889}, {"type": "node", "id": 5599719749, "lat": 57.8793287, "lon": 11.9696662}, {"type": "node", "id": 5599719750, "lat": 57.8794942, "lon": 11.9689044}, {"type": "node", "id": 5599719751, "lat": 57.8787911, "lon": 11.9709483}, {"type": "node", "id": 5599719753, "lat": 57.8773164, "lon": 11.9713077}, {"type": "node", "id": 5599719754, "lat": 57.8773064, "lon": 11.968714}, {"type": "node", "id": 5599719755, "lat": 57.8768828, "lon": 11.9687663}, {"type": "node", "id": 5612191395, "lat": 57.8738102, "lon": 11.9741101, "tags": {"amenity": "pharmacy", "branch": "Kung\u00e4lv", "brand": "Apoteket", "check_date": "2022-12-22", "dispensing": "yes", "healthcare": "pharmacy", "name": "Apoteket Kongah\u00e4lla Kung\u00e4lv", "operator": "Apoteket AB (publ)", "phone": "+46771450450"}}, {"type": "node", "id": 5713386988, "lat": 58.0613863, "lon": 11.752364, "tags": {"amenity": "dentist", "name": "Alm\u00f6 Tandv\u00e5rd"}}, {"type": "node", "id": 5713386989, "lat": 58.062086, "lon": 11.7522202, "tags": {"amenity": "pharmacy", "brand": "Apotek Hj\u00e4rtat", "contact:phone": "+46771405405", "contact:website": "http://apotekhjartat.se", "dispensing": "yes", "name": "Apotek Hj\u00e4rtat", "opening_hours": "Mo-Fr 09:00-18:00; Sa 10:00-13:00", "operator": "Apotek Hj\u00e4rtat Retail AB", "wheelchair": "limited"}}, {"type": "node", "id": 5713386993, "lat": 58.0613667, "lon": 11.7522047, "tags": {"addr:city": "Myggen\u00e4s", "addr:country": "SE", "addr:housenumber": "4A-D", "addr:postcode": "471 60", "addr:street": "Myggen\u00e4sv\u00e4gen", "amenity": "clinic", "contact:phone": "+46 304 25 92 00", "healthcare": "clinic", "name": "Capio V\u00e5rdcentral Alm\u00f6", "network": "V\u00e4stra G\u00f6talandsregionen", "opening_hours": "Mo-Fr 08:00-17:00", "operator": "Capio L\u00e4karhus AB", "ownership": "private"}}, {"type": "node", "id": 5950175032, "lat": 58.0250524, "lon": 11.6580659, "tags": {"amenity": "clinic", "healthcare": "clinic", "name": "Tj\u00f6rn barn- och ungdomsmedicinsk mottagning", "network": "V\u00e4stra G\u00f6talandsregionen", "operator": "V\u00e4stra G\u00f6talandsregionen", "phone": "+46 10 473 45 00", "website": "https://www.1177.se/Vastra-Gotaland/hitta-vard/kontaktkort/Tjorn-barn-och-ungdomsmedicinsk-mottagning-Tjorn/"}}, {"type": "node", "id": 5950175034, "lat": 58.0252072, "lon": 11.6582698, "tags": {"addr:city": "K\u00e5llek\u00e4rr", "addr:country": "SE", "addr:housenumber": "1", "addr:postcode": "471 94", "addr:street": "Syster Ebbas v\u00e4g", "amenity": "clinic", "healthcare": "clinic", "name": "N\u00e4rh\u00e4lsan Tj\u00f6rn rehabmottagning", "network": "V\u00e4stra G\u00f6talandsregionen", "operator": "V\u00e4stra G\u00f6talandsregionen", "phone": "+46 10 473 46 70", "website": "https://www.narhalsan.se/hitta-mottagning/tjorn/narhalsan-tjorn-rehabmottagning/"}}, {"type": "node", "id": 6203202273, "lat": 58.0723937, "lon": 11.8150393, "tags": {"addr:city": "Stenungsund", "addr:country": "SE", "addr:housenumber": "23D", "addr:postcode": "444 31", "addr:street": "Strandv\u00e4gen", "amenity": "clinic", "emergency": "yes", "healthcare": "hospital", "healthcare:speciality": "general;community", "name": "Capio V\u00e5rdcentral Stenungsund", "operator": "Capio"}}, {"type": "node", "id": 6431538407, "lat": 57.887521, "lon": 11.5880361, "tags": {"amenity": "clinic", "contact:phone": "+46 303 60142", "healthcare": "clinic", "name": "Marstrand v\u00e5rdcentral", "network": "V\u00e4stra G\u00f6talandsregionen", "operator": "Praktikertj\u00e4nst AB", "owner": "Praktikertj\u00e4nst AB", "ownership": "private"}}, {"type": "node", "id": 6431538408, "lat": 57.8616103, "lon": 11.9185674, "tags": {"amenity": "clinic", "contact:phone": "+46 303 379 700", "healthcare": "clinic", "name": "V\u00e5rdcentralen Kusten", "network": "V\u00e4stra G\u00f6talandsregionen", "operator": "Praktikertj\u00e4nst AB", "owner": "Praktikertj\u00e4nst AB", "ownership": "private"}}, {"type": "node", "id": 6431561943, "lat": 57.8621303, "lon": 11.918719, "tags": {"addr:city": "Ytterby", "addr:country": "SE", "addr:housenumber": "5", "addr:postcode": "442 50", "addr:street": "Ytterby Torg", "amenity": "clinic", "contact:phone": "+46 10 473 45 25", "healthcare": "midwife", "name": "N\u00e4rh\u00e4lsan Ytterby barnmorskemottagning", "network": "V\u00e4stra G\u00f6talandsregionen", "operator": "V\u00e4stra G\u00f6talandsregionen"}}, {"type": "node", "id": 8718567092, "lat": 57.8784287, "lon": 11.9665123}, {"type": "node", "id": 8718567093, "lat": 57.8786843, "lon": 11.9670813}, {"type": "node", "id": 8718567094, "lat": 57.8776658, "lon": 11.9660076}, {"type": "node", "id": 8906854617, "lat": 57.8513805, "lon": 12.0168596, "tags": {"addr:city": "Bohus", "addr:country": "SE", "addr:housenumber": "219", "addr:postcode": "44537", "addr:street": "G\u00f6teborgsv\u00e4gen", "amenity": "pharmacy", "dispensing": "yes", "healthcare": "pharmacy", "name": "Lloyds Apotek Bohus", "operator": "Lloyds Apotek", "phone": "+46 303-40 45 00"}}, {"type": "node", "id": 8906932804, "lat": 57.8516224, "lon": 12.0163259, "tags": {"addr:city": "Bohus", "addr:country": "SE", "addr:housenumber": "219", "addr:postcode": "44537", "addr:street": "G\u00f6teborgsv\u00e4gen", "amenity": "clinic", "healthcare": "clinic", "name": "Medical V\u00e5rdcentral och BVC Bohus", "phone": "+46 31-42 40 50", "website": "https://www.bohusvardcentral.se/"}}, {"type": "node", "id": 9007000416, "lat": 57.7472317, "lon": 11.9873917, "tags": {"addr:city": "Hisings Backa", "addr:country": "SE", "addr:housenumber": "2", "addr:postcode": "422 55", "addr:street": "Rimmaregatan", "amenity": "clinic", "name": "N\u00e4rh\u00e4lsan Backa v\u00e5rdcentral", "operator": "V\u00e4stra G\u00f6talandsregionen", "phone": "+46 31 742 73 00", "website": "https://www.narhalsan.se/hitta-mottagning/goteborg/goteborg-hisingen/narhalsan-backa-vardcentral/"}}, {"type": "node", "id": 9008100988, "lat": 57.7690892, "lon": 12.0188311, "tags": {"addr:city": "Angered", "addr:country": "SE", "addr:housenumber": "89B", "addr:postcode": "424 32", "addr:street": "Bergsg\u00e5rdsg\u00e4rdet", "air_conditioning": "yes", "amenity": "clinic", "check_date": "2023-07-13", "internet_access": "wlan", "internet_access:fee": "no", "name": "N\u00e4rh\u00e4lsan Hj\u00e4llbo v\u00e5rdcentral", "operator": "V\u00e4stra G\u00f6talandsregionen", "operator:type": "public", "payment:mastercard": "yes", "payment:visa": "yes", "phone": "+46 31 747 83 00", "website": "https://www.narhalsan.se/hitta-mottagning/goteborg/goteborg-ostra/narhalsan-hjallbo-vardcentral/"}}, {"type": "node", "id": 9008174342, "lat": 57.874073, "lon": 11.9674775, "tags": {"addr:city": "Kung\u00e4lv", "addr:country": "SE", "addr:housenumber": "1", "addr:postcode": "442 48", "addr:street": "\u00c4lvebacken", "amenity": "clinic", "name": "N\u00e4rh\u00e4lsan Kongah\u00e4lla v\u00e5rdcentral", "opening_hours": "Mo-Fr 08:00-17:00", "operator": "V\u00e4stra G\u00f6talandsregionen", "phone": "+46 10 473 38 00", "website": "https://www.narhalsan.se/hitta-mottagning/kungalv/narhalsan-nordmanna-vardcentral/"}}, {"type": "node", "id": 9008185923, "lat": 57.7938128, "lon": 11.9961262, "tags": {"addr:city": "Hisings K\u00e4rra", "addr:country": "SE", "addr:housenumber": "51", "addr:postcode": "425 31", "addr:street": "Lillek\u00e4rr S\u00f6dra", "amenity": "clinic", "name": "N\u00e4rh\u00e4lsan K\u00e4rra v\u00e5rdcentral", "operator": "V\u00e4stra G\u00f6talandsregionen", "phone": "+46 31 747 84 50", "website": "https://www.narhalsan.se/hitta-mottagning/goteborg/goteborg-ostra/narhalsan-karra-vardcentral/"}}, {"type": "node", "id": 9025207039, "lat": 57.7547998, "lon": 11.9267005, "tags": {"addr:city": "G\u00f6teborg", "addr:country": "SE", "addr:housenumber": "2", "addr:postcode": "417 45", "addr:street": "Tuve Torg", "amenity": "clinic", "contact:phone": "+46 31 747 85 00", "contact:website": "https://www.narhalsan.se/", "healthcare": "clinic", "name": "N\u00e4rh\u00e4lsan Tuve barnav\u00e5rdscentral", "network": "V\u00e4stra G\u00f6talandsregionen", "operator": "V\u00e4stra G\u00f6talandsregionen", "payment:cryptocurrencies": "no"}}, {"type": "node", "id": 9026135942, "lat": 58.0166919, "lon": 11.8314761, "tags": {"addr:city": "Stora H\u00f6ga", "addr:country": "SE", "addr:housenumber": "2", "addr:postcode": "444 60", "addr:street": "Stora v\u00e4gen", "amenity": "clinic", "contact:phone": "+46 10-473 35 00", "contact:website": "https://www.narhalsan.se/hitta-mottagning/stenungsund/narhalsan-stora-hoga-vardcentral/", "healthcare": "centre", "name": "N\u00e4rh\u00e4lsan Stora H\u00f6ga barnav\u00e5rdscentral", "network": "V\u00e4stra G\u00f6talandsregionen", "operator": "V\u00e4stra G\u00f6talandsregionen", "phone": "+46 10 473 35 00", "website": "https://www.narhalsan.se/hitta-mottagning/stenungsund/narhalsan-stora-hoga-barnavardscentral/"}}, {"type": "node", "id": 9026591313, "lat": 58.0665078, "lon": 11.8180194, "tags": {"addr:city": "Stenungsund", "addr:country": "SE", "addr:housenumber": "3", "addr:postcode": "444 30", "addr:street": "Jullen", "amenity": "clinic", "name": "Stenungsund jourcentral", "operator": "V\u00e4stra G\u00f6talandsregionen", "phone": "+46 10 473 32 78", "website": "https://www.narhalsan.se/hitta-mottagning/stenungsund/stenungsund-jourcentral/"}}, {"type": "node", "id": 9026627647, "lat": 58.0562732, "lon": 11.8262954, "tags": {"addr:city": "Stenungsund", "addr:country": "SE", "addr:housenumber": "2", "addr:postcode": "444 47", "addr:street": "N\u00f6sn\u00e4sv\u00e4gen", "amenity": "clinic", "name": "N\u00e4rh\u00e4lsan Stenungsund rehabmottagning - N\u00f6sn\u00e4s", "operator": "V\u00e4stra G\u00f6talandsregionen", "phone": "+46 10 473 32 70", "website": "https://www.narhalsan.se/hitta-mottagning/stenungsund/narhalsan-stenungsund-rehabmottagning/"}}, {"type": "node", "id": 9026634992, "lat": 58.0665429, "lon": 11.8175965, "tags": {"addr:city": "Stenungsund", "addr:country": "SE", "addr:housenumber": "4", "addr:postcode": "444 30", "addr:street": "Jullen", "amenity": "clinic", "name": "N\u00e4rh\u00e4lsan Stenungsund rehabmottagning", "operator": "V\u00e4stra G\u00f6talandsregionen", "phone": "+46 10 473 32 70", "website": "https://www.narhalsan.se/hitta-mottagning/stenungsund/narhalsan-stenungsund-rehabmottagning/"}}, {"type": "node", "id": 9026653091, "lat": 58.0617981, "lon": 11.843015, "tags": {"addr:city": "Stenungsund", "addr:country": "SE", "addr:housenumber": "17C", "addr:postcode": "444 44", "addr:street": "Hasselbackev\u00e4gen", "amenity": "clinic", "name": "N\u00e4rh\u00e4lsan Stenungsund barnav\u00e5rdscentral", "operator": "V\u00e4stra G\u00f6talandsregionen", "phone": "+46 10 473 32 41;+46 10 473 32 42;+46 10 473 32 43", "website": "https://www.narhalsan.se/hitta-mottagning/stenungsund/narhalsan-stenungsund-barnavardscentral/"}}, {"type": "node", "id": 9026682259, "lat": 57.8885839, "lon": 11.9503154, "tags": {"addr:city": "Kung\u00e4lv", "addr:country": "SE", "addr:housenumber": "58", "addr:postcode": "442 40", "addr:street": "Rollsbov\u00e4gen", "amenity": "clinic", "name": "N\u00e4rh\u00e4lsan Solg\u00e4rde rehabmottagning", "operator": "V\u00e4stra G\u00f6talandsregionen", "phone": "+46 10 473 45 40", "website": "https://www.narhalsan.se/hitta-mottagning/kungalv/narhalsan-kungalv-rehabmottagning/"}}, {"type": "node", "id": 9026692939, "lat": 57.8886081, "lon": 11.9503127, "tags": {"addr:city": "Kung\u00e4lv", "addr:country": "SE", "addr:housenumber": "58", "addr:postcode": "442 40", "addr:street": "Rollsbov\u00e4gen", "amenity": "clinic", "name": "N\u00e4rh\u00e4lsan Solg\u00e4rde barnav\u00e5rdscentral", "operator": "V\u00e4stra G\u00f6talandsregionen", "phone": "+46 10 473 38 30", "website": "https://www.narhalsan.se/hitta-mottagning/kungalv/narhalsan-solgarde-barnavardscentral/"}}, {"type": "node", "id": 9028510134, "lat": 57.7937406, "lon": 11.9961208, "tags": {"addr:city": "Hisings K\u00e4rra", "addr:country": "SE", "addr:housenumber": "51", "addr:postcode": "425 31", "addr:street": "Lillek\u00e4rr S\u00f6dra", "amenity": "clinic", "name": "N\u00e4rh\u00e4lsan K\u00e4rra barnav\u00e5rdscentral", "operator": "V\u00e4stra G\u00f6talandsregionen", "phone": "+46 31 747 84 50", "website": "https://www.narhalsan.se/hitta-mottagning/goteborg/goteborg-ostra/narhalsan-karra-barnavardscentral/"}}, {"type": "node", "id": 9029777345, "lat": 57.8738494, "lon": 11.9674862, "tags": {"addr:city": "Kung\u00e4lv", "addr:country": "SE", "addr:housenumber": "1", "addr:postcode": "442 48", "addr:street": "\u00c4lvebacken", "amenity": "clinic", "name": "N\u00e4rh\u00e4lsan Kongah\u00e4lla rehabmottagning", "opening_hours": "Mo 07:30-18:00; Tu-Th 07:30-17:00; Fr 07:30-14:00", "operator": "V\u00e4stra G\u00f6talandsregionen", "phone": "+46 10 473 38 00", "website": "https://www.narhalsan.se/hitta-mottagning/kungalv/narhalsan-kongahalla-rehabmottagning/"}}, {"type": "node", "id": 9029795118, "lat": 57.873961, "lon": 11.9674728, "tags": {"addr:city": "Kung\u00e4lv", "addr:country": "SE", "addr:housenumber": "1", "addr:postcode": "442 48", "addr:street": "\u00c4lvebacken", "amenity": "clinic", "name": "N\u00e4rh\u00e4lsan Kongah\u00e4lla barnav\u00e5rdscentral", "opening_hours": "Mo-Fr 08:00-17:00", "operator": "V\u00e4stra G\u00f6talandsregionen", "phone": "+46 10 473 38 00", "website": "https://www.narhalsan.se/hitta-mottagning/kungalv/narhalsan-nordmanna-barnavardscentral/"}}, {"type": "node", "id": 9029814754, "lat": 57.7690319, "lon": 12.0188284, "tags": {"addr:city": "Angered", "addr:country": "SE", "addr:housenumber": "89B", "addr:postcode": "424 32", "addr:street": "Bergsg\u00e5rdsg\u00e4rdet", "air_conditioning": "yes", "amenity": "clinic", "check_date": "2023-07-13", "internet_access": "wlan", "internet_access:fee": "no", "name": "N\u00e4rh\u00e4lsan Hj\u00e4llbo barnav\u00e5rdscentral", "operator": "V\u00e4stra G\u00f6talandsregionen", "operator:type": "public", "payment:mastercard": "yes", "payment:visa": "yes", "phone": "+46 31 747 83 64", "website": "https://www.narhalsan.se/hitta-mottagning/goteborg/goteborg-ostra/narhalsan-hjallbo-barnavardscentral/"}}, {"type": "node", "id": 9038905527, "lat": 57.7471868, "lon": 11.9873989, "tags": {"addr:city": "Hisings Backa", "addr:country": "SE", "addr:housenumber": "2", "addr:postcode": "422 55", "addr:street": "Rimmaregatan", "amenity": "clinic", "name": "N\u00e4rh\u00e4lsan Backa barnav\u00e5rdscentral", "operator": "V\u00e4stra G\u00f6talandsregionen", "phone": "+46 31 742 73 70", "website": "https://www.narhalsan.se/hitta-mottagning/goteborg/goteborg-hisingen/narhalsan-backa-barnavardscentral/"}}, {"type": "node", "id": 9038910249, "lat": 57.7476495, "lon": 11.9846926, "tags": {"addr:city": "Hisings Backa", "addr:country": "SE", "addr:housenumber": "1C", "addr:postcode": "422 55", "addr:street": "Rimmaregatan", "amenity": "clinic", "healthcare": "clinic", "name": "N\u00e4rh\u00e4lsan Backa rehabmottagning", "operator": "V\u00e4stra G\u00f6talandsregionen", "phone": "+46 31 747 99 40", "website": "https://www.narhalsan.se/hitta-mottagning/goteborg/goteborg-hisingen/narhalsan-backa-rehabmottagning/"}}, {"type": "node", "id": 9038910272, "lat": 57.8783732, "lon": 11.9686899, "tags": {"addr:city": "Kung\u00e4lv", "addr:country": "SE", "addr:housenumber": "1", "addr:postcode": "442 83", "addr:street": "Lasarettsgatan", "amenity": "clinic", "name": "Kung\u00e4lv jourcentral", "operator": "V\u00e4stra G\u00f6talandsregionen", "phone": "+46 303 980 24", "website": "https://www.narhalsan.se/hitta-mottagning/kungalv/kungalv-jourcentral/"}}, {"type": "node", "id": 9847423243, "lat": 57.7497837, "lon": 11.9286, "tags": {"addr:country": "SE", "addr:housenumber": "105", "addr:street": "Gunnestorpsv\u00e4gen", "amenity": "veterinary", "entrance": "yes", "name": "Tuve Djurklinik", "opening_hours": "Mo-Fr 09:00-18:00; PH closed"}}, {"type": "node", "id": 10101067833, "lat": 57.8704306, "lon": 11.9765531, "tags": {"addr:country": "SE", "addr:housenumber": "21C", "addr:street": "Kristinedalsgatan", "amenity": "dentist", "check_date": "2022-10-14", "healthcare": "dentist", "name": "K21", "phone": "+46 303 63 30 0", "website": "https://k21tandlakarna.se"}}, {"type": "node", "id": 10117917364, "lat": 57.8737514, "lon": 11.9738521, "tags": {"amenity": "clinic", "check_date": "2022-10-20", "email": "info@kungalvsspecialistklinik.se", "healthcare": "clinic", "name": "Kung\u00e4lvs Specialistklinik", "phone": "+46 303 12 55 2", "website": "https://kungalvsspecialistklinik.se"}}, {"type": "node", "id": 10824044470, "lat": 57.751748, "lon": 12.0323292, "tags": {"addr:city": "G\u00f6teborg", "addr:country": "SE", "addr:housenumber": "3", "addr:postcode": "41535", "addr:street": "Tusen\u00e5rsgatan", "amenity": "clinic", "healthcare": "clinic", "name": "Medical V\u00e5rdcentral och BVC Kortedala", "payment:cryptocurrencies": "no"}}, {"type": "node", "id": 10824065479, "lat": 57.8038966, "lon": 12.0314149, "tags": {"addr:city": "Angered", "addr:country": "SE", "addr:housenumber": "10", "addr:postcode": "42441", "addr:street": "Muskotgatan", "amenity": "clinic", "healthcare": "clinic", "name": "G\u00e5rdsten V\u00e5rdcentral och BVC, Angered"}}, {"type": "node", "id": 10837861170, "lat": 57.8731163, "lon": 11.9683615, "tags": {"amenity": "pharmacy", "brand": "Kronans Apotek", "brand:wikidata": "Q10549422", "healthcare": "pharmacy", "level": "2", "name": "Kronans Apotek"}}, {"type": "node", "id": 10837906005, "lat": 57.8728345, "lon": 11.9685187, "tags": {"amenity": "pharmacy", "brand": "Apoteket", "brand:wikidata": "Q1785637", "healthcare": "pharmacy", "level": "1", "name": "Apoteket"}}, {"type": "node", "id": 10837906009, "lat": 57.8738355, "lon": 11.9677799, "tags": {"amenity": "dentist", "brand": "Folktandv\u00e5rden", "brand:wikidata": "Q10497476", "healthcare": "dentist", "level": "3", "name": "Folktandv\u00e5rden"}}, {"type": "node", "id": 10839186506, "lat": 57.8757739, "lon": 11.9753312, "tags": {"amenity": "clinic", "healthcare": "clinic", "name": "Centrumpraktiken"}}, {"type": "node", "id": 10880877402, "lat": 57.8732492, "lon": 11.9791022, "tags": {"amenity": "dentist", "check_date": "2023-05-09", "healthcare": "dentist", "name": "Lem\u00e9r Tandreglering"}}, {"type": "node", "id": 10880877404, "lat": 57.8733484, "lon": 11.9789582, "tags": {"amenity": "veterinary", "check_date": "2023-05-09", "name": "Erika Rask AB"}}, {"type": "node", "id": 10931561875, "lat": 57.871792, "lon": 11.9511813, "tags": {"amenity": "veterinary", "name": "Evidensia"}}, {"type": "node", "id": 10957591211, "lat": 57.8736675, "lon": 11.9768868, "tags": {"amenity": "clinic", "check_date": "2023-06-05", "healthcare": "clinic", "name": "Kongah\u00e4lla kliniken"}}, {"type": "node", "id": 11154440774, "lat": 57.8642373, "lon": 11.9272845, "tags": {"amenity": "veterinary", "name": "Kongah\u00e4lla Djursjukv\u00e5rd"}}, {"type": "node", "id": 11245263532, "lat": 57.7701195, "lon": 12.0006764, "tags": {"amenity": "pharmacy", "brand": "Apotek Hj\u00e4rtat", "brand:wikidata": "Q10416114", "healthcare": "pharmacy", "name": "Apotek Hj\u00e4rtat"}}, {"type": "node", "id": 11245263534, "lat": 57.769387, "lon": 12.00023, "tags": {"amenity": "pharmacy", "brand": "Kronans Apotek", "brand:wikidata": "Q10549422", "healthcare": "pharmacy", "name": "Kronans Apotek"}}, {"type": "node", "id": 11365677219, "lat": 57.7494404, "lon": 11.9827464, "tags": {"addr:city": "Hisings Backa", "addr:housenumber": "11", "addr:postcode": "42248", "addr:street": "Selma Lagerl\u00f6fs Torg", "amenity": "pharmacy", "brand": "Kronans Apotek", "brand:wikidata": "Q10549422", "healthcare": "pharmacy", "name": "Kronans Apotek"}}, {"type": "node", "id": 11379721257, "lat": 57.8694438, "lon": 11.9836723, "tags": {"amenity": "dentist", "healthcare": "dentist", "name": "Prim\u00e4r Tandv\u00e5rden"}}, {"type": "node", "id": 11505924547, "lat": 58.0162599, "lon": 11.8332942, "tags": {"amenity": "clinic", "healthcare": "clinic", "name": "Stora H\u00f6ga L\u00e4karhus"}}, {"type": "node", "id": 11656197075, "lat": 57.8790563, "lon": 11.9702053}, {"type": "node", "id": 11656197076, "lat": 57.8790463, "lon": 11.9708866}, {"type": "node", "id": 11656197077, "lat": 57.8786, "lon": 11.9710314}, {"type": "node", "id": 11656197078, "lat": 57.8782819, "lon": 11.9711843}, {"type": "node", "id": 11656197079, "lat": 57.8794271, "lon": 11.9681078}, {"type": "node", "id": 11656197080, "lat": 57.8795455, "lon": 11.9685638}, {"type": "node", "id": 11656197081, "lat": 57.8780965, "lon": 11.9658253}, {"type": "node", "id": 11656197082, "lat": 57.8774861, "lon": 11.966123}, {"type": "node", "id": 11656197083, "lat": 57.8774326, "lon": 11.9662759}, {"type": "node", "id": 11656197084, "lat": 57.8773991, "lon": 11.9664945}, {"type": "node", "id": 11656197085, "lat": 57.8773827, "lon": 11.9667962}, {"type": "node", "id": 11656197086, "lat": 57.8772957, "lon": 11.9670537}, {"type": "node", "id": 11656197087, "lat": 57.8772686, "lon": 11.9676545}, {"type": "node", "id": 11656197088, "lat": 57.8770704, "lon": 11.9678275}, {"type": "way", "id": 585734883, "nodes": [5516389753, 5599719748, 5599719747, 5599719749, 5516389752, 5599719750, 11656197080, 5516389751, 11656197079, 5516389749, 8718567093, 8718567092, 11656197081, 5516524100, 8718567094, 5516524101, 11656197082, 11656197083, 11656197084, 11656197085, 11656197086, 5516389748, 11656197087, 11656197088, 5516389747, 5599719755, 5599719754, 5599719753, 11656197078, 11656197077, 5599719751, 11656197076, 11656197075, 5516389753], "tags": {"amenity": "hospital", "emergency": "yes", "health_specialty:emergency_medicine": "yes", "health_specialty:family_medicine": "yes", "health_specialty:intensive_care_medicine": "yes", "health_specialty:orthopaedics": "yes", "health_specialty:surgery": "yes", "healthcare": "hospital", "name": "Kung\u00e4lvs sjukhus", "opening_hours": "24/7", "operator": "V\u00e4stra G\u00f6talandsregionen", "website": "https://www.vgregion.se/sv/Kungalvs-sjukhus/Kungalvs-sjukhus1/", "wheelchair": "yes", "wikidata": "Q30263857"}}]}