{"version": 0.6, "generator": "Overpass API 0.7.61.5 4133829e", "osm3s": {"timestamp_osm_base": "2024-03-14T22:11:15Z", "copyright": "The data included in this document is from www.openstreetmap.org. The data is made available under ODbL."}, "elements": [{"type": "node", "id": 288658672, "lat": 58.3785519, "lon": 12.3219843, "tags": {"addr:city": "V\u00e4nersborg", "addr:country": "SE", "addr:housenumber": "11", "addr:postcode": "46222", "addr:street": "Edsgatan", "amenity": "bank", "atm": "yes", "brand": "Handelsbanken", "brand:wikidata": "Q1421630", "brand:wikipedia": "sv:Handelsbanken", "name": "Handelsbanken", "operator": "Handelsbanken"}}, {"type": "node", "id": 3198815327, "lat": 58.2843004, "lon": 12.2888027, "tags": {"amenity": "bank", "brand": "Handelsbanken", "brand:wikidata": "Q1421630", "brand:wikipedia": "sv:Handelsbanken", "name": "Handelsbanken"}}, {"type": "node", "id": 3198815353, "lat": 58.2834896, "lon": 12.2874835, "tags": {"amenity": "atm", "brand": "Bankomat", "brand:wikipedia": "sv:Bankomat", "fixme": "atm fortfarande kvar?", "operator": "Bankomat AB"}}, {"type": "node", "id": 3529103217, "lat": 58.3805224, "lon": 12.3229245, "tags": {"amenity": "atm", "check_date": "2023-07-19", "operator": "Uttag"}}, {"type": "node", "id": 4505090193, "lat": 58.3792278, "lon": 12.3224759, "tags": {"amenity": "atm", "brand": "Bankomat", "brand:wikipedia": "sv:Bankomat", "check_date": "2021-08-21", "operator": "Bankomat AB"}}, {"type": "node", "id": 4505126590, "lat": 58.3557112, "lon": 12.3899802, "tags": {"amenity": "atm", "check_date": "2023-07-19"}}, {"type": "node", "id": 4511021891, "lat": 58.283566, "lon": 12.2903639, "tags": {"amenity": "atm"}}, {"type": "node", "id": 5002094652, "lat": 58.3817838, "lon": 12.3226321, "tags": {"amenity": "atm", "brand": "Bankomat", "brand:wikipedia": "sv:Bankomat", "check_date": "2021-08-10", "operator": "Bankomat AB"}}]}