{"version": 0.6, "generator": "Overpass API 0.7.61.5 4133829e", "osm3s": {"timestamp_osm_base": "2024-03-13T23:10:52Z", "copyright": "The data included in this document is from www.openstreetmap.org. The data is made available under ODbL."}, "elements": [{"type": "node", "id": 837436268, "lat": 41.6710369, "lon": 44.3827281, "tags": {"amenity": "restaurant", "internet_access": "wlan", "name:ru": "Restoran", "opening_hours": "24/7"}}, {"type": "node", "id": 1203448448, "lat": 41.9207797, "lon": 44.4183101, "tags": {"amenity": "restaurant", "name": "\u10d9\u10d0\u10e1\u10de\u10d8", "name:en": "Kaspi", "name:ka": "\u10d9\u10d0\u10e1\u10de\u10d8", "name:ru": "\u041a\u0430\u0441\u043f\u0438", "source": "JumpStart International"}}, {"type": "node", "id": 1203448546, "lat": 41.9217279, "lon": 44.4217341, "tags": {"amenity": "restaurant", "cuisine": "georgian", "name": "\u10d0\u10d2\u10e3\u10e0\u10d4\u10d1\u10e8\u10d8", "name:en": "In Bricks", "name:ka": "\u10d0\u10d2\u10e3\u10e0\u10d4\u10d1\u10e8\u10d8", "source": "JumpStart International"}}, {"type": "node", "id": 3084275499, "lat": 41.6955015, "lon": 44.3863788, "tags": {"amenity": "cafe"}}, {"type": "node", "id": 4370814125, "lat": 41.9013394, "lon": 44.0904632, "tags": {"addr:city": "Didi Ateni", "amenity": "restaurant", "cuisine": "regional", "name": "\u10e4\u10d0\u10ea\u10ee\u10d4\u10d1\u10d8", "name:en": "Restaurant", "name:ka": "\u10e4\u10d0\u10ea\u10ee\u10d4\u10d1\u10d8"}}, {"type": "node", "id": 4371573424, "lat": 41.8879193, "lon": 44.0002901, "tags": {"amenity": "restaurant", "name": "\u10e4\u10d0\u10ea\u10ee\u10d4\u10d1\u10d8", "name:en": "Restaurant", "name:ka": "\u10e4\u10d0\u10ea\u10ee\u10d4\u10d1\u10d8"}}, {"type": "node", "id": 4371612096, "lat": 41.8995833, "lon": 44.0513474, "tags": {"amenity": "restaurant", "name": "\u10de\u10d0\u10de\u10da\u10d8\u10d0\u10e1 \u10e4\u10d0\u10ea\u10ee\u10d4\u10d1\u10d8", "name:ka": "\u10de\u10d0\u10de\u10da\u10d8\u10d0\u10e1 \u10e4\u10d0\u10ea\u10ee\u10d4\u10d1\u10d8"}}, {"type": "node", "id": 4407196651, "lat": 41.6773784, "lon": 44.3482442, "tags": {"amenity": "bar"}}, {"type": "node", "id": 5053274539, "lat": 41.6773186, "lon": 44.3484001, "tags": {"amenity": "cafe", "name": "Imbiss", "name:ru": "\u0428\u0430\u0448\u043b\u044b\u0447\u043d\u044b\u0439 \u0434\u0432\u043e\u0440"}}, {"type": "node", "id": 11159465646, "lat": 41.6972867, "lon": 44.3787667, "tags": {"amenity": "cafe", "name": "\u0425\u0438\u043d\u043a\u0430\u043b\u0438, \u043a\u0435\u0431\u0430\u0431, \u0445\u0430\u0447\u0430\u043f\u0443\u0440\u0438 (\u043d\u0430 \u0432\u044b\u043d\u043e\u0441)"}}, {"type": "node", "id": 11159474232, "lat": 41.6972704, "lon": 44.3827221, "tags": {"amenity": "cafe", "name": "Lulu's Cafe"}}]}