{"version": 0.6, "generator": "Overpass API 0.7.61.5 4133829e", "osm3s": {"timestamp_osm_base": "2024-03-14T22:00:01Z", "copyright": "The data included in this document is from www.openstreetmap.org. The data is made available under ODbL."}, "elements": [{"type": "node", "id": 244091736, "lat": 59.8563933, "lon": 17.6552302, "tags": {"amenity": "restaurant", "name": "H\u00f6rnstenen", "opening_hours": "Mo-Fr 09:00-14:00", "source": "Yahoo"}}, {"type": "node", "id": 244094316, "lat": 59.8583291, "lon": 17.6386143, "tags": {"amenity": "restaurant", "cuisine": "irish", "name": "O'Connor's", "opening_hours": "Mo 00:00-01:00,16:00-24:00; Tu-Th 00:00-03:00,16:00-24:00; Fr 00:00-03:00,14:00-24:00; Sa,Su 00:00-03:00,12:30-24:00", "phone": "+46 18 144010", "website": "https://www.oconnors.se/", "wheelchair": "limited"}}, {"type": "node", "id": 247737100, "lat": 59.6161776, "lon": 17.7214143, "tags": {"addr:city": "Sigtuna", "addr:country": "SE", "addr:housenumber": "3", "addr:postcode": "193 30", "addr:street": "Laurentii Gr\u00e4nd", "alt_name": "Tant Brun", "amenity": "cafe", "description": "One of Sweden's oldest caf\u00e9s in one of Sigtuna's oldest buildings. Traditional to stop here when visiting Sigtuna.", "name": "Tant Bruns Kaffestuga", "opening_hours": "Mo-Fr 10:00-17:00; Sa, Su 10:00-18:00", "tourism": "attraction", "website": "https://www.tantbrun-sigtuna.se"}}, {"type": "node", "id": 264218855, "lat": 59.6131515, "lon": 17.7174955, "tags": {"amenity": "cafe", "diet:vegetarian": "yes", "name": "Hamncaf\u00e9 V\u00e5fflan", "opening_hours": "PH,Mo-Su 10:00-22:00", "wheelchair": "yes"}}, {"type": "node", "id": 270589003, "lat": 59.8506351, "lon": 17.6420504}, {"type": "node", "id": 270589004, "lat": 59.8499561, "lon": 17.642894}, {"type": "node", "id": 270589005, "lat": 59.8498399, "lon": 17.6424749}, {"type": "node", "id": 270589006, "lat": 59.8501694, "lon": 17.6421209}, {"type": "node", "id": 270589007, "lat": 59.8501358, "lon": 17.642}, {"type": "node", "id": 270589008, "lat": 59.8505308, "lon": 17.6416911}, {"type": "node", "id": 271973894, "lat": 59.8546305, "lon": 17.6394577, "tags": {"addr:city": "Uppsala", "addr:country": "SE", "addr:housenumber": "3", "addr:street": "Munkgatan", "amenity": "cafe", "name": "F\u00e5gels\u00e5ngen", "opening_hours": "Mo-Fr 07:30-19:00; Sa,Su 09:00-18:00", "phone": "+46 18 145265", "website": "https://www.konditorifagelsangen.se/", "wheelchair": "no"}}, {"type": "node", "id": 281742755, "lat": 59.899119, "lon": 17.6333305}, {"type": "node", "id": 313723243, "lat": 59.8578425, "lon": 17.6282631, "tags": {"amenity": "restaurant", "cuisine": "italian", "name": "Il Forno Italiano", "opening_hours": "Mo-Fr 16:00-23:00; Su 13:00-22:00; Sa 13:00-23:00", "phone": "+46 18 103520", "website": "https://ilfornoitaliano.se/uppsala/"}}, {"type": "node", "id": 313922446, "lat": 59.8620107, "lon": 17.6373434, "tags": {"amenity": "restaurant", "created_by": "Potlatch 0.10f", "name": "Indian Kitchen", "opening_hours": "Mo-Fr 11:00-14:00,14:30-22:00; Sa,Su 13:00-22:00", "wheelchair": "yes"}}, {"type": "node", "id": 360052739, "lat": 59.8498234, "lon": 17.5838137}, {"type": "node", "id": 360052740, "lat": 59.8498634, "lon": 17.5840004}, {"type": "node", "id": 360052741, "lat": 59.8497142, "lon": 17.5841272}, {"type": "node", "id": 360052742, "lat": 59.8496742, "lon": 17.5839405}, {"type": "node", "id": 365768003, "lat": 59.843068, "lon": 17.6416228}, {"type": "node", "id": 365768004, "lat": 59.8428793, "lon": 17.6416949}, {"type": "node", "id": 365768005, "lat": 59.8428073, "lon": 17.6409482}, {"type": "node", "id": 365768006, "lat": 59.842996, "lon": 17.6408761}, {"type": "node", "id": 365797653, "lat": 59.843696, "lon": 17.6435061}, {"type": "node", "id": 365797654, "lat": 59.8437248, "lon": 17.6438124}, {"type": "node", "id": 365797655, "lat": 59.8438804, "lon": 17.6437544}, {"type": "node", "id": 365797656, "lat": 59.8438878, "lon": 17.6438339}, {"type": "node", "id": 365797657, "lat": 59.8440282, "lon": 17.6437815}, {"type": "node", "id": 365797658, "lat": 59.8440207, "lon": 17.6437014}, {"type": "node", "id": 365797659, "lat": 59.8441811, "lon": 17.6436416}, {"type": "node", "id": 365797660, "lat": 59.8441524, "lon": 17.6433359}, {"type": "node", "id": 385397164, "lat": 59.8670436, "lon": 17.671322, "tags": {"amenity": "restaurant", "name": "Aspentos"}}, {"type": "node", "id": 409854955, "lat": 59.8779381, "lon": 17.6189286, "tags": {"amenity": "restaurant", "cuisine": "pizza", "email": "info@remorestaurang.se", "name": "Remo", "opening_hours": "Mo-Th 11:00-21:00; Fr 11:00-22:00; Sa 12:00-22:00; Su 12:00-21:00", "phone": "+46 18 240680", "website": "http://remorestaurang.se/"}}, {"type": "node", "id": 409858888, "lat": 59.8590712, "lon": 17.6364676, "tags": {"amenity": "restaurant", "cuisine": "italian", "indoor_seating": "yes", "name": "Villa Romana", "outdoor_seating": "yes"}}, {"type": "node", "id": 411904852, "lat": 59.8506231, "lon": 17.690774}, {"type": "node", "id": 411904853, "lat": 59.8504025, "lon": 17.6911791}, {"type": "node", "id": 411904854, "lat": 59.8502979, "lon": 17.6909534}, {"type": "node", "id": 411904855, "lat": 59.8505184, "lon": 17.6905482}, {"type": "node", "id": 412306472, "lat": 59.8538014, "lon": 17.5643171}, {"type": "node", "id": 412306474, "lat": 59.8539131, "lon": 17.5643655}, {"type": "node", "id": 412306476, "lat": 59.8539361, "lon": 17.5641555}, {"type": "node", "id": 412311173, "lat": 59.8488711, "lon": 17.5603305, "tags": {"amenity": "restaurant", "collection_times": "Mo-Fr 09:00", "cuisine": "asian", "name": "Pong Express Uppsala Stenhagen", "opening_hours": "Mo-Fr 10:30-21:00; Sa,Su 11:00-21:00"}}, {"type": "node", "id": 412971260, "lat": 59.85226, "lon": 17.589192}, {"type": "node", "id": 413053086, "lat": 59.8538512, "lon": 17.5642697, "tags": {"amenity": "restaurant", "cuisine": "grill;pizza", "name": "Tyros kolgrill & pizza"}}, {"type": "node", "id": 413649352, "lat": 59.859478, "lon": 17.6318367, "tags": {"addr:city": "Uppsala", "addr:postcode": "75223", "addr:street": "Sysslomansgatan", "amenity": "cafe", "cuisine": "regional", "name": "Ofvandahls", "opening_hours": "Mo-Fr 07:30-18:00;Sa 10:00-17:00;Su 11:00-17:00", "phone": "+46 18 134204", "smoking": "no", "website": "https://www.ofvandahls.se/", "wheelchair": "yes", "wikidata": "Q10607913", "wikipedia": "sv:Ofvandahls"}}, {"type": "node", "id": 414239838, "lat": 59.8620079, "lon": 17.6425432, "tags": {"addr:city": "Uppsala", "addr:country": "SE", "addr:housenumber": "22", "addr:postcode": "753 29", "addr:street": "Sankt Persgatan", "amenity": "restaurant", "capacity": "50", "cuisine": "japanese", "name": "Mey Wang Sushi", "opening_hours": "Mo-Sa 11:00-21:30", "phone": "+461813 87 18", "takeaway": "yes"}}, {"type": "node", "id": 420048054, "lat": 59.8659261, "lon": 17.6097996}, {"type": "node", "id": 420048061, "lat": 59.865981, "lon": 17.6100336}, {"type": "node", "id": 439796376, "lat": 59.9130004, "lon": 17.5757521, "tags": {"amenity": "restaurant", "name": "Ulva krog", "wheelchair": "limited"}}, {"type": "node", "id": 441027830, "lat": 59.850669, "lon": 17.6273797, "tags": {"amenity": "cafe", "bulk_purchase": "yes", "name": "Caf\u00e9 Victoria", "opening_hours": "Mo-Th 10:00-17:00, Fr 10:00-20:00, Sa,Su 11:00-17:00"}}, {"type": "node", "id": 445302824, "lat": 59.616006, "lon": 17.8281887, "tags": {"amenity": "restaurant", "name": "La Campana"}}, {"type": "node", "id": 453514660, "lat": 59.5740979, "lon": 17.8440541, "tags": {"amenity": "cafe", "email": "reception@rosersbergsslott.se", "name": "Slottscaf\u00e9", "phone": "+46 8-1220 2008", "website": "https://www.rosersbergsslott.se/mat-och-dryck/slottscafe"}}, {"type": "node", "id": 453539662, "lat": 59.605326, "lon": 17.8009283, "tags": {"addr:city": "M\u00e4rsta", "addr:country": "SE", "addr:housenumber": "141", "addr:postcode": "19591", "addr:street": "Steninge slottv\u00e4g", "amenity": "restaurant", "indoor_seating": "yes", "name": "Steninge Bruk", "opening_hours": "Mo-Fr 11:00-18:00; Sa,Su 11:30-17:00", "outdoor_seating": "yes", "phone": "+46 8 59259460", "website": "https://steningebruk.se/"}}, {"type": "node", "id": 453546812, "lat": 59.6137229, "lon": 17.8790521, "tags": {"amenity": "cafe", "source": "survey"}}, {"type": "node", "id": 459265410, "lat": 59.8615105, "lon": 17.6333412, "tags": {"alt_name": "Cafe Linn\u00e9", "amenity": "cafe", "name": "Caf\u00e9 Linn\u00e9 Konstantina", "toilets:wheelchair": "no", "wheelchair": "yes"}}, {"type": "node", "id": 459265413, "lat": 59.8613906, "lon": 17.6335071, "tags": {"addr:country": "SE", "addr:housenumber": "22", "addr:postcode": "75332", "addr:street": "Svartb\u00e4cksgatan", "alt_name": "Cafe Linn\u00e9", "amenity": "cafe", "check_date": "2022-10-15", "check_date:opening_hours": "2024-02-02", "diet:vegetarian": "yes", "internet_access": "wlan", "name": "Caf\u00e9 Linn\u00e9 H\u00f6rnan", "opening_hours": "Mo-Sa 07:30-22:00; Su 08:30-22:00", "payment:credit_cards": "yes", "payment:debit_cards": "yes", "phone": "+46 18 155510", "website": "http://www.cafeLinne.com", "wheelchair": "no"}}, {"type": "node", "id": 459265421, "lat": 59.8585099, "lon": 17.6273628, "tags": {"addr:country": "SE", "addr:housenumber": "18", "addr:street": "Sankt Johannesgatan", "amenity": "cafe", "name": "Caf\u00e9 Uroxen", "opening_hours": "Mo-Fr 10:00-20:00; Su 11:00-16:00", "phone": "+4618100658", "website": "https://www.cafeuroxen.se", "wheelchair": "no"}}, {"type": "node", "id": 469342149, "lat": 59.8610246, "lon": 17.645816, "tags": {"amenity": "cafe"}}, {"type": "node", "id": 470278030, "lat": 59.7519621, "lon": 17.2501962, "tags": {"amenity": "cafe", "name": "Alsta tr\u00e4dg\u00e5rdar"}}, {"type": "node", "id": 473486642, "lat": 59.8618017, "lon": 17.6223531, "tags": {"amenity": "restaurant", "name": "Luthagens pizzeria"}}, {"type": "node", "id": 600748738, "lat": 59.8583898, "lon": 17.6323432, "tags": {"addr:city": "Uppsala", "addr:country": "SE", "addr:housenumber": "7", "addr:street": "Domkyrkoplan", "amenity": "cafe", "indoor_seating": "yes", "name": "Katedralcafeet", "opening_hours": "Mo-Su 10:00-17:00", "outdoor_seating": "yes", "toilets:wheelchair": "yes", "wheelchair": "yes"}}, {"type": "node", "id": 601612339, "lat": 59.8599712, "lon": 17.6223535, "tags": {"amenity": "cafe", "name": "Caf\u00e9 biotopia"}}, {"type": "node", "id": 641257716, "lat": 59.5210011, "lon": 17.9034954, "tags": {"addr:city": "Upplands V\u00e4sby", "addr:country": "SE", "addr:housenumber": "4D", "addr:postcode": "194 76", "addr:street": "Centralv\u00e4gen", "amenity": "restaurant", "contact:phone": "+46 8-590 770 10", "contact:website": "http://www.restaurang-tiger.com/", "cuisine": "thai", "name": "Restaurang Tiger", "opening_hours": "Mo-Fr 11:00-22:00; Sa 12:00-22:00; Su 13:00-21:00", "outdoor_seating": "yes", "source": "http://www.restaurang-tiger.com/;survey", "takeaway": "yes", "wheelchair": "yes"}}, {"type": "node", "id": 641258095, "lat": 59.5208795, "lon": 17.9042569, "tags": {"addr:city": "Upplands V\u00e4sby", "addr:country": "SE", "addr:housenumber": "6", "addr:postcode": "19476", "addr:street": "Centralv\u00e4gen", "amenity": "restaurant", "check_date:opening_hours": "2023-09-08", "cuisine": "japanese", "name": "Midoh Kitchen", "opening_hours": "Mo-Fr 11:00-21:00; Sa-Su 12:00-21:00", "phone": "+46 859085986", "source": "survey", "takeaway": "yes", "website": "https://midohkitchen.se/", "wheelchair": "yes"}}, {"type": "node", "id": 650084883, "lat": 59.8598666, "lon": 17.6457607, "tags": {"addr:city": "Uppsala", "addr:country": "SE", "addr:housenumber": "1", "addr:postcode": "75327", "addr:street": "Roslagsgatan", "amenity": "restaurant", "name": "Katalin and all that jazz", "opening_hours": "Mo-Th 14:00-23:00+; Fr,Sa 13:00-23:00+", "website": "https://www.katalin.com/", "wheelchair": "yes", "wikidata": "Q10544290", "wikipedia": "sv:Katalin (restaurang)"}}, {"type": "node", "id": 662932762, "lat": 59.6487503, "lon": 17.9293049, "tags": {"addr:city": "Stockholm-Arlanda", "addr:country": "SE", "addr:housename": "Skycity", "addr:postcode": "19045", "amenity": "restaurant", "cuisine": "italian", "layer": "2", "level": "2", "name": "Alfredo's", "opening_hours": "09:00-22:00"}}, {"type": "node", "id": 662932766, "lat": 59.6496034, "lon": 17.9297393, "tags": {"addr:city": "Stockholm-Arlanda", "addr:country": "SE", "addr:housename": "Skycity", "addr:postcode": "19045", "amenity": "restaurant", "layer": "2", "level": "2", "name": "Sky Horizon"}}, {"type": "node", "id": 662932771, "lat": 59.6497349, "lon": 17.9290975, "tags": {"addr:city": "Stockholm-Arlanda", "addr:country": "SE", "addr:housename": "Skycity", "addr:postcode": "19045", "amenity": "cafe", "check_date": "2023-03-24", "layer": "1", "name": "Sky Caf\u00e9", "note": "seems to be almost 24/7"}}, {"type": "node", "id": 662932777, "lat": 59.64877, "lon": 17.928924, "tags": {"addr:city": "Stockholm-Arlanda", "addr:country": "SE", "addr:housename": "Skycity", "addr:postcode": "19045", "amenity": "restaurant", "check_date": "2023-03-24", "cuisine": "sushi", "layer": "2", "name": "East & West"}}, {"type": "node", "id": 662932787, "lat": 59.6514205, "lon": 17.9310876, "tags": {"addr:city": "Stockholm-Arlanda", "addr:country": "SE", "addr:housename": "Terminal 5", "addr:postcode": "19045", "amenity": "cafe", "brand": "7-Eleven", "brand:wikidata": "Q259340", "brand:wikipedia": "en:7-Eleven", "internet_access": "wlan", "level": "2", "name": "7-Eleven", "opening_hours": "24/7", "phone": "+46 (0)8-593 607 70", "shop": "convenience", "website": "https://www.swedavia.se/arlanda/shopping/7-eleven/"}}, {"type": "node", "id": 662932790, "lat": 59.6518387, "lon": 17.9318495, "tags": {"addr:city": "Stockholm-Arlanda", "addr:country": "SE", "addr:housename": "Terminal 5", "addr:postcode": "19045", "amenity": "cafe", "name": "Grand cafe Stockholm"}}, {"type": "node", "id": 663703140, "lat": 59.8703512, "lon": 17.6266641, "tags": {"addr:city": "Uppsala", "addr:country": "SE", "addr:housenumber": "68", "addr:street": "Svartb\u00e4cksgatan", "amenity": "restaurant", "cuisine": "asian", "name": "Java", "phone": "+46 18 238576", "takeaway": "yes", "website": "http://restaurangjava.se/", "wheelchair": "no"}}, {"type": "node", "id": 674941167, "lat": 59.7824769, "lon": 17.6263146}, {"type": "node", "id": 674941168, "lat": 59.7825003, "lon": 17.6263375}, {"type": "node", "id": 674941169, "lat": 59.7825875, "lon": 17.6260165}, {"type": "node", "id": 674941170, "lat": 59.7827487, "lon": 17.6261813}, {"type": "node", "id": 674941171, "lat": 59.7827119, "lon": 17.6263169}, {"type": "node", "id": 674941172, "lat": 59.7826442, "lon": 17.62625}, {"type": "node", "id": 674941173, "lat": 59.7825525, "lon": 17.6265811}, {"type": "node", "id": 674941174, "lat": 59.7825341, "lon": 17.6266139}, {"type": "node", "id": 674941175, "lat": 59.7824879, "lon": 17.6266218}, {"type": "node", "id": 674941176, "lat": 59.7824464, "lon": 17.6265773}, {"type": "node", "id": 674941179, "lat": 59.7824413, "lon": 17.626605}, {"type": "node", "id": 674941180, "lat": 59.7823943, "lon": 17.6265582}, {"type": "node", "id": 715511917, "lat": 59.7916491, "lon": 17.6596331}, {"type": "node", "id": 715511918, "lat": 59.7919396, "lon": 17.6596266}, {"type": "node", "id": 715511919, "lat": 59.7919439, "lon": 17.6594396}, {"type": "node", "id": 715511921, "lat": 59.7918185, "lon": 17.6594283}, {"type": "node", "id": 715511922, "lat": 59.7918212, "lon": 17.6593122}, {"type": "node", "id": 715511923, "lat": 59.7916568, "lon": 17.6592973}, {"type": "node", "id": 719037270, "lat": 59.8605525, "lon": 17.6354891, "tags": {"amenity": "cafe", "diet:vegan": "yes", "name": "Kardemumma", "opening_hours": "Jan-Dec Mo-Fr 08:00-19:00; Jan-Dec Sa 10:00-17:00; Sep-Apr Su 11:00-17:00", "wheelchair": "yes"}}, {"type": "node", "id": 719259005, "lat": 59.857535, "lon": 17.6363556, "tags": {"amenity": "restaurant", "cuisine": "indian", "indoor_seating": "yes", "name": "Curry India", "outdoor_seating": "no"}}, {"type": "node", "id": 719259006, "lat": 59.8574003, "lon": 17.636066, "tags": {"amenity": "restaurant", "cuisine": "libanees", "indoor_seating": "yes", "name": "Al Habib", "outdoor_seating": "no"}}, {"type": "node", "id": 719265576, "lat": 59.8587095, "lon": 17.641645, "tags": {"amenity": "restaurant"}}, {"type": "node", "id": 719265584, "lat": 59.8584617, "lon": 17.64113, "tags": {"addr:city": "Uppsala", "addr:country": "SE", "addr:housenumber": "11", "addr:postcode": "75320", "addr:street": "Smedsgr\u00e4nd", "amenity": "restaurant", "email": "restaurangen@restaurangloco.se", "name": "The Loco", "opening_hours": "Mo,Tu 11:00-22:00; We,Th 11:00-23:00; Fr 11:00-01:00; Sa 16:00-01:00; Su off", "phone": "+46 18 106680", "website": "https://restaurangloco.se/"}}, {"type": "node", "id": 764925170, "lat": 59.6533892, "lon": 17.9367029, "tags": {"amenity": "cafe", "check_date:opening_hours": "2023-06-27", "cuisine": "coffee_shop", "name": "Caff\u00e8 Ritazza", "opening_hours:signed": "no"}}, {"type": "node", "id": 764925534, "lat": 59.6520232, "lon": 17.9351472, "tags": {"addr:city": "Stockholm-Arlanda", "addr:country": "SE", "addr:housename": "Terminal 5", "addr:postcode": "19045", "amenity": "cafe", "cuisine": "sandwich", "name": "Taste"}}, {"type": "node", "id": 764926724, "lat": 59.6520386, "lon": 17.9316423, "tags": {"amenity": "bar", "check_date": "2023-03-24", "cuisine": "burger", "name": "Cosmopolitan Bistro"}}, {"type": "node", "id": 765094474, "lat": 59.6529675, "lon": 17.9305545, "tags": {"amenity": "bar", "check_date": "2023-03-24", "name": "Barino"}}, {"type": "node", "id": 765095071, "lat": 59.6527561, "lon": 17.9310802, "tags": {"amenity": "restaurant", "check_date": "2023-03-24", "name": "Taste"}}, {"type": "node", "id": 801303294, "lat": 59.8602852, "lon": 17.629645, "tags": {"amenity": "cafe", "name": "Cafe Tar"}}, {"type": "node", "id": 801319035, "lat": 59.855248, "lon": 17.6421062, "tags": {"addr:city": "Uppsala", "addr:country": "SE", "addr:housenumber": "59", "addr:postcode": "75322", "addr:street": "\u00d6stra \u00c5gatan", "amenity": "restaurant", "internet_access": "wlan", "microbrewery": "yes", "name": "Bryggeriet \u00c5ngkvarn", "opening_hours": "Mo,Tu 16:00-22:00, We,Th 16:00-24:00, Fr,Sa 15:00-24:00", "website": "https://bryggerietangkvarn.se/"}}, {"type": "node", "id": 801344320, "lat": 59.8581681, "lon": 17.6377395, "tags": {"amenity": "restaurant", "name": "Magnussons", "wheelchair": "limited"}}, {"type": "node", "id": 825450966, "lat": 59.8330613, "lon": 17.9125227, "tags": {"amenity": "cafe", "outdoor_seating": "yes"}}, {"type": "node", "id": 844599473, "lat": 59.8144739, "lon": 17.6632382, "tags": {"amenity": "restaurant", "name": "Ultunarestaurangen"}}, {"type": "node", "id": 846946569, "lat": 59.8568228, "lon": 17.6423844, "tags": {"addr:city": "Uppsala", "addr:country": "SE", "addr:housenumber": "20", "addr:postcode": "75322", "addr:street": "Kungs\u00e4ngsgatan", "amenity": "restaurant", "email": "info@dragonpalace.se", "name": "Dragon Palace", "opening_hours": "Mo-Th 11:00-22:00; Fr 11:00-23:00; Sa 12:00-23:00; Su 12:00-22:00", "phone": "+46 18 107340", "website": "https://www.dragonpalace.se/", "wheelchair": "limited"}}, {"type": "node", "id": 854469009, "lat": 59.8579498, "lon": 17.6559544, "tags": {"amenity": "restaurant", "cuisine": "sushi", "diet:vegetarian": "yes", "name": "Sushi Bae", "opening_hours": "Mo-Fr 11:00-21:00; Sa,Su 12:00-21:00"}}, {"type": "node", "id": 854469010, "lat": 59.8440722, "lon": 17.6161754, "tags": {"amenity": "restaurant", "name": "Sommarro"}}, {"type": "node", "id": 854469011, "lat": 59.8439819, "lon": 17.6161986, "tags": {"addr:city": "Uppsala", "addr:country": "SE", "addr:housenumber": "65", "addr:street": "Norbyv\u00e4gen", "amenity": "restaurant", "cuisine": "sushi", "name": "Yukikos Sushi", "opening_hours": "Mo-Fr 11:00-21:00, Sa-Su 15:00-21:00", "phone": "+46 18 591569", "smoking": "no", "url": "http://www.yukikossushi.se/", "website": "http://yukikossushi.se/"}}, {"type": "node", "id": 878246712, "lat": 59.8724934, "lon": 17.6565473}, {"type": "node", "id": 878246840, "lat": 59.8726129, "lon": 17.6561559}, {"type": "node", "id": 878246922, "lat": 59.8725547, "lon": 17.6566216}, {"type": "node", "id": 878247121, "lat": 59.8726742, "lon": 17.6562302}, {"type": "node", "id": 888416680, "lat": 59.7258176, "lon": 17.7903895, "tags": {"amenity": "restaurant", "cuisine": "thai", "name": "Thai Orchid Seam", "takeaway": "yes"}}, {"type": "node", "id": 888418597, "lat": 59.7253288, "lon": 17.7882492, "tags": {"amenity": "restaurant", "cuisine": "greek", "name": "Grekens Taverna & Bar", "opening_hours": "Mo-Th 11:00-21:00; Fr 11:00-23:00; Sa 14:00-23:00; Su 14:00-21:00", "phone": "018-34 20 55", "website": "https://grekenstaverna.se/"}}, {"type": "node", "id": 888420662, "lat": 59.7235472, "lon": 17.7913516, "tags": {"amenity": "restaurant", "name": "S\u00e4rsta W\u00e4rdshus", "opening_hours": "Tu-Fr 11:30-14:00"}}, {"type": "node", "id": 888504481, "lat": 59.7351752, "lon": 17.6471355, "tags": {"amenity": "restaurant", "name": "Krusenberg herrg\u00e5rd"}}, {"type": "node", "id": 902983366, "lat": 59.8428887, "lon": 17.8746873, "tags": {"amenity": "cafe", "internet_access": "no"}}, {"type": "node", "id": 920130509, "lat": 59.8435987, "lon": 17.6423117, "tags": {"addr:country": "SE", "addr:housename": "Stallet", "addr:housenumber": "58", "addr:street": "Dag Hammarskj\u00f6lds v\u00e4g", "amenity": "restaurant", "name": "Primaten", "opening_hours": "Mo-Fr 08:00-15:00", "website": "https://primatendeli.se/"}}, {"type": "node", "id": 929061437, "lat": 59.8578561, "lon": 17.6383007, "tags": {"addr:city": "Uppsala", "addr:country": "SE", "addr:housenumber": "31", "addr:postcode": "75322", "addr:street": "\u00d6stra \u00c5gatan", "amenity": "cafe", "diet:vegan": "yes", "diet:vegetarian": "yes", "name": "G\u00fcntherska Hovkonditori & Schweizeri", "opening_hours": "Mo-Fr 09:00-19:00; Sa,Su 10:00-18:00", "phone": "+46 18 130757", "website": "https://www.guntherska.se"}}, {"type": "node", "id": 957275250, "lat": 59.8575911, "lon": 17.6404082, "tags": {"amenity": "restaurant", "cuisine": "italian", "indoor_seating": "yes", "name": "Rififi", "outdoor_seating": "yes", "wheelchair": "yes"}}, {"type": "node", "id": 957275253, "lat": 59.8582083, "lon": 17.6404921, "tags": {"addr:city": "Uppsala", "addr:country": "SE", "addr:postcode": "75320", "amenity": "restaurant", "check_date:opening_hours": "2023-12-15", "email": "uppsala@egon.se", "name": "Egon", "opening_hours": "Su-Th 10:00-23:00; Fr,Sa 10:00-24:00", "phone": "+46 18 692979", "website": "https://egon.se/restauranter/uppsala", "wheelchair": "yes"}}, {"type": "node", "id": 958372880, "lat": 59.8578941, "lon": 17.6442946, "tags": {"amenity": "restaurant", "cuisine": "italian", "name": "Stazione"}}, {"type": "node", "id": 958372909, "lat": 59.858637, "lon": 17.6434781, "tags": {"addr:city": "Uppsala", "addr:country": "SE", "addr:housenumber": "57A", "addr:postcode": "75321", "addr:street": "Kungsgatan", "amenity": "restaurant", "email": "office@baras.se", "name": "Baras S\u00e4llskap", "opening_hours": "Mo,Tu 14:00+; We 14:00-24:00; Th,Fr 00:00-01:00,14:00-24:00; Sa 00:00-01:00,13:00-24:00; Su 00:00-01:00,13:00+", "phone": "+46 8 6695855", "wheelchair": "yes"}}, {"type": "node", "id": 958372933, "lat": 59.8587723, "lon": 17.6432625, "tags": {"amenity": "restaurant", "check_date": "2023-07-22", "cuisine": "chinese", "diet:gluten_free": "yes", "name": "China Garden", "opening_hours": "Mo-Th 11:00-22:00; Fr 11:00-23:00; Sa 12:00-23:00; Su 12:00-22:00", "wheelchair": "yes"}}, {"type": "node", "id": 958372959, "lat": 59.858317, "lon": 17.6422584, "tags": {"addr:city": "Uppsala", "addr:country": "SE", "addr:housenumber": "6", "addr:street": "Dragarbrunnsgatan", "amenity": "restaurant", "cuisine": "thai", "diet:vegetarian": "yes", "email": "amazingthai@amazingthai.se", "name": "Amazing Thai", "opening_hours": "Mo-Th 11:00-22:00; Fr,Sa 11:00-23:00; Su,PH 12:00-22:00", "phone": "+46 18 153010", "takeaway": "yes", "website": "https://www.amazingthai.se/Dragarbrunnsgatan", "wheelchair": "yes"}}, {"type": "node", "id": 968602398, "lat": 59.7918145, "lon": 17.6596481}, {"type": "node", "id": 968602416, "lat": 59.7918152, "lon": 17.6596153}, {"type": "node", "id": 968658204, "lat": 59.8519433, "lon": 17.6430012}, {"type": "node", "id": 968658233, "lat": 59.8518567, "lon": 17.6428496}, {"type": "node", "id": 968658257, "lat": 59.8519246, "lon": 17.642947}, {"type": "node", "id": 968658276, "lat": 59.8519885, "lon": 17.6429397}, {"type": "node", "id": 968658317, "lat": 59.8519083, "lon": 17.6426956}, {"type": "node", "id": 968658324, "lat": 59.8519011, "lon": 17.642979}, {"type": "node", "id": 968658345, "lat": 59.851883, "lon": 17.6428138}, {"type": "node", "id": 968658359, "lat": 59.8518634, "lon": 17.6427568}, {"type": "node", "id": 983772201, "lat": 59.8584392, "lon": 17.6876268, "tags": {"amenity": "restaurant", "name": "XL Grillen", "opening_hours": "Mo-Fr 10:00-20:00; Sa,Su 11:00-20:00"}}, {"type": "node", "id": 983772214, "lat": 59.8564242, "lon": 17.6843009, "tags": {"amenity": "restaurant", "name": "Cajsa's k\u00f6k"}}, {"type": "node", "id": 983772222, "lat": 59.8521677, "lon": 17.6843438, "tags": {"amenity": "restaurant"}}, {"type": "node", "id": 983772233, "lat": 59.8558855, "lon": 17.6919827, "tags": {"amenity": "restaurant", "name": "Restaurang Fyrislund", "opening_hours": "Mo-Fr 07:00-16:00"}}, {"type": "node", "id": 983772236, "lat": 59.8569846, "lon": 17.690706, "tags": {"amenity": "restaurant", "name": "Pizzeria Cecilia"}}, {"type": "node", "id": 983772242, "lat": 59.8550019, "lon": 17.690588, "tags": {"amenity": "restaurant", "name": "Mariannes"}}, {"type": "node", "id": 986946001, "lat": 59.8574889, "lon": 17.6132892, "tags": {"addr:city": "Uppsala", "addr:country": "SE", "addr:housenumber": "29", "addr:postcode": "75233", "addr:street": "Studenstaden", "amenity": "restaurant", "cuisine": "indian", "name": "Eden Garden Indisk Restaurang"}}, {"type": "node", "id": 988619328, "lat": 59.8582004, "lon": 17.6389802, "tags": {"addr:country": "SE", "addr:housenumber": "3", "addr:postcode": "753 20", "addr:street": "Stora Torget", "amenity": "cafe", "diet:vegan": "yes", "diet:vegetarian": "yes", "name": "Kafferummet Storken", "opening_hours": "Mo-Fr 09:00-21:00; Sa 10:00-20:00; Su 12:00-20:00", "phone": "+46-18150522", "wheelchair": "no"}}, {"type": "node", "id": 990238000, "lat": 59.8566342, "lon": 17.6426966, "tags": {"amenity": "restaurant", "check_date:opening_hours": "2023-09-20", "cuisine": "sushi", "diet:vegan": "yes", "diet:vegetarian": "yes", "name": "Aikin's sushi", "opening_hours": "Mo-Fr 11:00-21:30; Sa,Su 12:00-21:30"}}, {"type": "node", "id": 995213656, "lat": 59.8577671, "lon": 17.6399958, "tags": {"amenity": "cafe", "diet:vegetarian": "yes", "name": "Landings konditori", "opening_hours": "Mo-Fr 08:30-18:30; Sa 09:00-17:00; Su 11:00-17:00", "wheelchair": "limited"}}, {"type": "node", "id": 999166492, "lat": 59.7966322, "lon": 17.6569653}, {"type": "node", "id": 999166499, "lat": 59.7967227, "lon": 17.6569286}, {"type": "node", "id": 999166587, "lat": 59.7966896, "lon": 17.6566065}, {"type": "node", "id": 999166684, "lat": 59.7965991, "lon": 17.6566433}, {"type": "node", "id": 1027160073, "lat": 59.8542523, "lon": 17.6379896}, {"type": "node", "id": 1027160079, "lat": 59.854489, "lon": 17.6374773}, {"type": "node", "id": 1027160085, "lat": 59.8541262, "lon": 17.6376283}, {"type": "node", "id": 1027160101, "lat": 59.85424, "lon": 17.6374706}, {"type": "node", "id": 1027160109, "lat": 59.8542705, "lon": 17.6375579}, {"type": "node", "id": 1027160111, "lat": 59.854368, "lon": 17.6378294}, {"type": "node", "id": 1027160128, "lat": 59.8544368, "lon": 17.6373277}, {"type": "node", "id": 1027160150, "lat": 59.8543246, "lon": 17.6377049}, {"type": "node", "id": 1029338794, "lat": 59.7826699, "lon": 17.6261049}, {"type": "node", "id": 1029338806, "lat": 59.7827511, "lon": 17.6261295}, {"type": "node", "id": 1029338846, "lat": 59.7824196, "lon": 17.626456}, {"type": "node", "id": 1029338854, "lat": 59.7827405, "lon": 17.6261732}, {"type": "node", "id": 1029338908, "lat": 59.7824349, "lon": 17.6264712}, {"type": "node", "id": 1029338925, "lat": 59.7826861, "lon": 17.6260574}, {"type": "node", "id": 1030703370, "lat": 59.8441918, "lon": 17.6435396}, {"type": "node", "id": 1030703500, "lat": 59.8436907, "lon": 17.6436149}, {"type": "node", "id": 1030703616, "lat": 59.8441738, "lon": 17.643552}, {"type": "node", "id": 1030704073, "lat": 59.8437144, "lon": 17.6437386}, {"type": "node", "id": 1030704213, "lat": 59.8441701, "lon": 17.6434272}, {"type": "node", "id": 1030704240, "lat": 59.8437063, "lon": 17.6436033}, {"type": "node", "id": 1030704372, "lat": 59.8441602, "lon": 17.6434296}, {"type": "node", "id": 1030704549, "lat": 59.8436946, "lon": 17.6437385}, {"type": "node", "id": 1032122260, "lat": 59.8223754, "lon": 17.6556326}, {"type": "node", "id": 1032122354, "lat": 59.8220637, "lon": 17.6556182}, {"type": "node", "id": 1032122429, "lat": 59.8221193, "lon": 17.6555977}, {"type": "node", "id": 1032122480, "lat": 59.8224415, "lon": 17.6554775}, {"type": "node", "id": 1032122546, "lat": 59.8221662, "lon": 17.6556995}, {"type": "node", "id": 1032122801, "lat": 59.8223752, "lon": 17.655502}, {"type": "node", "id": 1032122844, "lat": 59.8223905, "lon": 17.6557952}, {"type": "node", "id": 1032122963, "lat": 59.8221823, "lon": 17.6558721}, {"type": "node", "id": 1032123043, "lat": 59.8220744, "lon": 17.6557334}, {"type": "node", "id": 1032123091, "lat": 59.8221002, "lon": 17.6553935}, {"type": "node", "id": 1032123126, "lat": 59.8224533, "lon": 17.6556038}, {"type": "node", "id": 1032123222, "lat": 59.8223562, "lon": 17.6552989}, {"type": "node", "id": 1053671733, "lat": 59.851931, "lon": 17.6427619}, {"type": "node", "id": 1053671852, "lat": 59.8519364, "lon": 17.6427547}, {"type": "node", "id": 1053671921, "lat": 59.8519678, "lon": 17.6428795}, {"type": "node", "id": 1053671997, "lat": 59.8519756, "lon": 17.6428688}, {"type": "node", "id": 1059301183, "lat": 59.8447426, "lon": 17.63384}, {"type": "node", "id": 1131364242, "lat": 59.8480957, "lon": 17.6060403}, {"type": "node", "id": 1131364436, "lat": 59.8480892, "lon": 17.6061607}, {"type": "node", "id": 1131364581, "lat": 59.8481639, "lon": 17.606055}, {"type": "node", "id": 1131364620, "lat": 59.8481574, "lon": 17.6061754}, {"type": "node", "id": 1143022829, "lat": 59.5516765, "lon": 17.5568294, "tags": {"amenity": "restaurant", "name": "Kalmarsand Restaurang & Cafe"}}, {"type": "node", "id": 1147379047, "lat": 59.8533137, "lon": 17.6240731, "tags": {"amenity": "restaurant", "diet:vegan": "yes", "diet:vegetarian": "yes", "name": "Matikum"}}, {"type": "node", "id": 1184340135, "lat": 59.8611502, "lon": 17.7080581}, {"type": "node", "id": 1184341071, "lat": 59.8610884, "lon": 17.7081991}, {"type": "node", "id": 1184342048, "lat": 59.8611987, "lon": 17.7081423}, {"type": "node", "id": 1184342220, "lat": 59.8611369, "lon": 17.7082833}, {"type": "node", "id": 1359595464, "lat": 59.6494119, "lon": 17.7202455}, {"type": "node", "id": 1359595638, "lat": 59.6494944, "lon": 17.7205592}, {"type": "node", "id": 1359595805, "lat": 59.6495305, "lon": 17.7204908}, {"type": "node", "id": 1359595972, "lat": 59.6493758, "lon": 17.720314}, {"type": "node", "id": 1382242480, "lat": 59.9620782, "lon": 17.6977831}, {"type": "node", "id": 1382242506, "lat": 59.9619127, "lon": 17.6982053}, {"type": "node", "id": 1382242515, "lat": 59.9615052, "lon": 17.6973966}, {"type": "node", "id": 1382242524, "lat": 59.9619889, "lon": 17.6976434}, {"type": "node", "id": 1382242552, "lat": 59.9617061, "lon": 17.6968843}, {"type": "node", "id": 1382242575, "lat": 59.9620658, "lon": 17.6974471}, {"type": "node", "id": 1382242670, "lat": 59.9617188, "lon": 17.6977307}, {"type": "node", "id": 1382242672, "lat": 59.9616772, "lon": 17.6978369}, {"type": "node", "id": 1386099259, "lat": 59.95934, "lon": 17.7053615, "tags": {"amenity": "restaurant", "name": "Restaurang Vreten"}}, {"type": "node", "id": 1386099260, "lat": 59.9519076, "lon": 17.7009802, "tags": {"amenity": "restaurant", "name": "Restaurang Kreta", "phone": "+46-18315316"}}, {"type": "node", "id": 1410682244, "lat": 59.8681704, "lon": 17.6622178}, {"type": "node", "id": 1410686434, "lat": 59.8682835, "lon": 17.6695616}, {"type": "node", "id": 1410686453, "lat": 59.8682114, "lon": 17.6697009}, {"type": "node", "id": 1410686484, "lat": 59.8683853, "lon": 17.6697707}, {"type": "node", "id": 1410686489, "lat": 59.8683132, "lon": 17.6699099}, {"type": "node", "id": 1411548640, "lat": 59.844681, "lon": 17.6336826}, {"type": "node", "id": 1411548665, "lat": 59.8448277, "lon": 17.6338049}, {"type": "node", "id": 1411548798, "lat": 59.8447662, "lon": 17.6339003}, {"type": "node", "id": 1411548866, "lat": 59.8422088, "lon": 17.6340511, "tags": {"amenity": "restaurant", "name": "Bikupan"}}, {"type": "node", "id": 1411548879, "lat": 59.8447425, "lon": 17.6335871}, {"type": "node", "id": 1429039382, "lat": 59.6495577, "lon": 17.7218375}, {"type": "node", "id": 1429039384, "lat": 59.649662, "lon": 17.7220926}, {"type": "node", "id": 1429039391, "lat": 59.6498312, "lon": 17.7213992}, {"type": "node", "id": 1429039393, "lat": 59.6499356, "lon": 17.7216543}, {"type": "node", "id": 1432095744, "lat": 59.5286327, "lon": 17.924954}, {"type": "node", "id": 1432095745, "lat": 59.5286657, "lon": 17.9251036}, {"type": "node", "id": 1432095747, "lat": 59.5285404, "lon": 17.925211}, {"type": "node", "id": 1432095748, "lat": 59.5285074, "lon": 17.9250614}, {"type": "node", "id": 1453896383, "lat": 59.860065, "lon": 17.641896, "tags": {"amenity": "restaurant", "cuisine": "sushi", "name": "Ichiban", "opening_hours": "Mo-Fr 11:00-20:00"}}, {"type": "node", "id": 1491623175, "lat": 59.8628591, "lon": 17.6136568, "tags": {"addr:city": "Uppsala", "addr:country": "SE", "addr:housenumber": "35", "addr:postcode": "75217", "addr:street": "Ringgatan", "amenity": "restaurant", "name": "Trappan", "opening_hours": "Mo-Fr 10:00-21:00; Sa,Su 12:00-21:00", "phone": "+46 18 51400", "website": "https://ring-trappan.se/"}}, {"type": "node", "id": 1491624563, "lat": 59.8647174, "lon": 17.6099125, "tags": {"addr:city": "Uppsala", "addr:country": "SE", "addr:housenumber": "54", "addr:postcode": "75229", "addr:street": "B\u00f6rjegatan", "amenity": "restaurant", "name": "Restaurang Arom", "opening_hours": "Mo-Fr 11:00-22:00; Sa,Su 12:00-22:00", "phone": "+46 18 543222", "website": "http://www.restaurangarom.se/"}}, {"type": "node", "id": 1491624668, "lat": 59.866083, "lon": 17.609815}, {"type": "node", "id": 1492662286, "lat": 59.8491771, "lon": 17.703632, "tags": {"amenity": "restaurant", "name": "Morellen"}}, {"type": "node", "id": 1492665475, "lat": 59.848067, "lon": 17.7093183, "tags": {"amenity": "restaurant", "name": "Linden"}}, {"type": "node", "id": 1499949717, "lat": 59.553923, "lon": 17.7937213}, {"type": "node", "id": 1499949748, "lat": 59.553921, "lon": 17.7940571}, {"type": "node", "id": 1499949757, "lat": 59.5540227, "lon": 17.7940676}, {"type": "node", "id": 1499949908, "lat": 59.5539438, "lon": 17.792936}, {"type": "node", "id": 1499951111, "lat": 59.5540316, "lon": 17.7937294}, {"type": "node", "id": 1499951292, "lat": 59.554027, "lon": 17.7929446}, {"type": "node", "id": 1573738159, "lat": 59.5512601, "lon": 17.9286718}, {"type": "node", "id": 1573738191, "lat": 59.5512473, "lon": 17.9291726}, {"type": "node", "id": 1573738195, "lat": 59.5511666, "lon": 17.9286984}, {"type": "node", "id": 1573738285, "lat": 59.5512956, "lon": 17.9291589}, {"type": "node", "id": 1638983019, "lat": 59.7360269, "lon": 17.3104025, "tags": {"amenity": "restaurant", "cuisine": "pizza", "name": "Pizzeria Lilla torget", "opening_hours": "\"Inga specificerade tider\""}}, {"type": "node", "id": 1708452135, "lat": 59.9468741, "lon": 17.5440052}, {"type": "node", "id": 1708452149, "lat": 59.9467945, "lon": 17.5437596}, {"type": "node", "id": 1708452160, "lat": 59.9468007, "lon": 17.5441}, {"type": "node", "id": 1708452176, "lat": 59.9467211, "lon": 17.5438544}, {"type": "node", "id": 1714486539, "lat": 59.862006, "lon": 17.6552313, "tags": {"addr:city": "Uppsala", "addr:country": "SE", "addr:housenumber": "9", "addr:postcode": "75329", "addr:street": "Torkelsgatan", "amenity": "restaurant", "cuisine": "italian", "name": "Il Gradino", "opening_hours": "Tu-Th 17:00-22:00; Fr, Sa 16:30-23:00; Su 15:00-22:00", "phone": "+46 18 - 69 50 20", "website": "http://www.gradino.se"}}, {"type": "node", "id": 1716675052, "lat": 59.8466977, "lon": 17.685963, "tags": {"amenity": "cafe", "name": "Vero Mat och Cafe", "opening_hours": "Mo-Fr 10:00-19:00; Sa 10:00-17:00; Su 11:00-17:00", "wheelchair": "yes"}}, {"type": "node", "id": 1716949093, "lat": 59.8586439, "lon": 17.6355029, "tags": {"amenity": "restaurant", "cuisine": "greek", "name": "Tzatziki", "opening_hours": "Mo-Fr 09:00-18:00; Sa 10:00-14:00", "wheelchair": "limited"}}, {"type": "node", "id": 1716949265, "lat": 59.8567862, "lon": 17.6313137}, {"type": "node", "id": 1716949266, "lat": 59.8567992, "lon": 17.6316802}, {"type": "node", "id": 1716949286, "lat": 59.8569099, "lon": 17.6312962}, {"type": "node", "id": 1716949288, "lat": 59.856923, "lon": 17.6316627}, {"type": "node", "id": 1736059393, "lat": 59.8553689, "lon": 17.6418163, "tags": {"addr:city": "Uppsala", "addr:country": "SE", "addr:housenumber": "59", "addr:postcode": "75322", "addr:street": "\u00d6stra \u00c5gatan", "amenity": "restaurant", "cuisine": "greek", "internet_access": "yes", "internet_access:fee": "customers", "name": "Sju himmelska gluggar", "opening_hours": "Tu-Su 12:00-24:00", "outdoor_seating": "yes"}}, {"type": "node", "id": 1787673755, "lat": 59.7254896, "lon": 17.2915524, "tags": {"amenity": "restaurant", "cuisine": "pizza", "name": "Pizzeria Amore"}}, {"type": "node", "id": 1791491356, "lat": 59.7973389, "lon": 17.443598, "tags": {"addr:city": "Uppsala", "addr:country": "SE", "addr:housenumber": "2", "addr:postcode": "75591", "addr:street": "Ramstalundsv\u00e4gen", "amenity": "restaurant", "cuisine": "pizza", "name": "Ramsta Pizzeria", "opening_hours": "Mo-Th 09:00-21:00; Fr 09:00-22:00; Sa 10:00-22:00; Su 10:00-21:00 ", "phone": "+46 18 398307"}}, {"type": "node", "id": 1896594525, "lat": 59.7242597, "lon": 17.8038413, "tags": {"amenity": "cafe", "name": "S\u00e4rstakiosken"}}, {"type": "node", "id": 1913833874, "lat": 59.5750416, "lon": 17.5162388, "tags": {"amenity": "cafe", "name": "Konditori Solsl\u00e4tten"}}, {"type": "node", "id": 1913833891, "lat": 59.5762939, "lon": 17.513841, "tags": {"amenity": "restaurant", "cuisine": "thai", "name": "Mae Thai"}}, {"type": "node", "id": 1913833892, "lat": 59.5754681, "lon": 17.5154842, "tags": {"amenity": "restaurant", "cuisine": "chinese", "name": "Lucky House"}}, {"type": "node", "id": 1913833893, "lat": 59.5769653, "lon": 17.5117054, "tags": {"amenity": "restaurant", "cuisine": "american", "name": "Texas Corner", "website": "http://texascorner.se/"}}, {"type": "node", "id": 1913919942, "lat": 59.5656572, "lon": 17.5358163, "tags": {"amenity": "restaurant", "name": "Winner Garden"}}, {"type": "node", "id": 1914029209, "lat": 59.5674452, "lon": 17.5291628, "tags": {"amenity": "restaurant", "level": "0", "name": "B\u00e5lsta k\u00f6k & bar"}}, {"type": "node", "id": 1914029211, "lat": 59.5671244, "lon": 17.5295851, "tags": {"amenity": "cafe", "name": "Caf\u00e9 Valhall"}}, {"type": "node", "id": 1914029262, "lat": 59.5623663, "lon": 17.5541213, "tags": {"amenity": "cafe", "name": "Lillsj\u00f6ns Mat & Caf\u00e9"}}, {"type": "node", "id": 1914527797, "lat": 59.5770496, "lon": 17.5132256, "tags": {"amenity": "restaurant", "cuisine": "bistro", "name": "Delikompaniet", "website": "http://www.delikompaniet.se/"}}, {"type": "node", "id": 1988109444, "lat": 59.560563, "lon": 17.5406901}, {"type": "node", "id": 1988109451, "lat": 59.5607628, "lon": 17.54073}, {"type": "node", "id": 1988109546, "lat": 59.5607188, "lon": 17.5405454}, {"type": "node", "id": 1988109555, "lat": 59.560607, "lon": 17.5408747}, {"type": "node", "id": 2008612322, "lat": 59.8154765, "lon": 17.6634543, "tags": {"amenity": "restaurant", "name": "Logen", "wheelchair": "limited"}}, {"type": "node", "id": 2043382348, "lat": 59.5214219, "lon": 17.8999497}, {"type": "node", "id": 2043382349, "lat": 59.5213955, "lon": 17.9001303}, {"type": "node", "id": 2043382350, "lat": 59.5214285, "lon": 17.9001489}, {"type": "node", "id": 2043382351, "lat": 59.5214341, "lon": 17.9001105}, {"type": "node", "id": 2043382352, "lat": 59.5214868, "lon": 17.9001404}, {"type": "node", "id": 2043382353, "lat": 59.5215076, "lon": 17.8999983}, {"type": "node", "id": 2058283998, "lat": 59.860488, "lon": 17.631642, "tags": {"amenity": "restaurant", "cuisine": "regional", "name": "Borgen"}}, {"type": "node", "id": 2103036707, "lat": 59.8866468, "lon": 17.1946167, "tags": {"addr:country": "SE", "addr:housenumber": "2", "addr:street": "Salav\u00e4gen", "amenity": "restaurant", "cuisine": "pizza", "name": "Jarlis Restaurang och Pizzeria", "opening_hours": "Mo-Th 11:00-20:00; Fr-Su 11:00-21:00", "phone": "+46-18391500"}}, {"type": "node", "id": 2117657398, "lat": 59.5751499, "lon": 17.5160701, "tags": {"addr:country": "SE", "addr:housenumber": "30", "addr:postcode": "74633", "addr:street": "Stockholmsv\u00e4gen", "amenity": "restaurant", "cuisine": "sushi", "name": "Sashimi sushi bar"}}, {"type": "node", "id": 2139167543, "lat": 59.8586998, "lon": 17.6459474, "tags": {"addr:city": "Uppsala", "addr:country": "SE", "addr:housenumber": "6", "addr:street": "Olof Palmes plats", "amenity": "restaurant", "cuisine": "international", "name": "Stationen", "opening_hours": "Su,Mo 10:00-23:00; Tu 10:00-24:00; We,Th 10:00-01:00; Fr,Sa 10:00-02:00", "phone": "+46 18 153500", "website": "https://www.stationen.se/"}}, {"type": "node", "id": 2168483049, "lat": 59.8759145, "lon": 17.6247061}, {"type": "node", "id": 2168483061, "lat": 59.8760082, "lon": 17.624467}, {"type": "node", "id": 2168483070, "lat": 59.8760373, "lon": 17.6245977}, {"type": "node", "id": 2168483085, "lat": 59.8758854, "lon": 17.6245754}, {"type": "node", "id": 2195990561, "lat": 59.8660918, "lon": 17.6099209}, {"type": "node", "id": 2196000047, "lat": 59.8660676, "lon": 17.6099032}, {"type": "node", "id": 2196000048, "lat": 59.865955, "lon": 17.6100215}, {"type": "node", "id": 2196000049, "lat": 59.8659831, "lon": 17.6097537}, {"type": "node", "id": 2196000050, "lat": 59.8659688, "lon": 17.6098308}, {"type": "node", "id": 2208623612, "lat": 59.858984, "lon": 17.6405754, "tags": {"amenity": "nightclub", "name": "Etage K\u00f6k & Bar", "opening_hours": "We-Sa 17:00-03:00", "url": "http://www.etagebar.se/", "wheelchair": "no"}}, {"type": "node", "id": 2208623622, "lat": 59.8607483, "lon": 17.6368739, "tags": {"amenity": "bar", "name": "Pinchos", "wheelchair": "limited"}}, {"type": "node", "id": 2208623629, "lat": 59.8559037, "lon": 17.6462053, "tags": {"amenity": "restaurant", "name": "Resturang Korfu"}}, {"type": "node", "id": 2208623631, "lat": 59.8609191, "lon": 17.6370933, "tags": {"amenity": "restaurant", "cuisine": "texan", "name": "Texas Longhorn", "operator": "Texas Smokehouse", "phone": "+46 18 140414", "website": "https://www.texaslonghorn.se/restaurant/dragarbrunnsgatan/", "wheelchair": "yes"}}, {"type": "node", "id": 2225304315, "lat": 59.7052438, "lon": 17.6219802}, {"type": "node", "id": 2225304321, "lat": 59.7052473, "lon": 17.6221458}, {"type": "node", "id": 2225304439, "lat": 59.7054778, "lon": 17.6219611}, {"type": "node", "id": 2225304441, "lat": 59.7054813, "lon": 17.6221267}, {"type": "node", "id": 2268715390, "lat": 59.6364767, "lon": 17.1293248, "tags": {"amenity": "restaurant", "name": "Enk\u00f6pings Golf Club Restaurant", "source": "survey"}}, {"type": "node", "id": 2274099255, "lat": 59.8632504, "lon": 17.6565156, "tags": {"addr:city": "Uppsala", "addr:country": "SE", "addr:housenumber": "28", "addr:street": "Hjalmar Brantingsgatan", "amenity": "restaurant", "name": "Ahaan thai", "opening_hours": "Fr 16:00-20:30; Sa 14:00-20:30; Su 14:00-20:30", "takeaway": "yes", "url": "http://www.ahaanthai.com"}}, {"type": "node", "id": 2302184891, "lat": 59.647896, "lon": 17.928311, "tags": {"amenity": "cafe", "name": "Caff\u00e8 Ritazza", "website": "https://www.swedavia.se/arlanda/mat-dryck/caffe-ritazza/"}}, {"type": "node", "id": 2302192821, "lat": 59.6478147, "lon": 17.9257004, "tags": {"amenity": "cafe", "layer": "1", "name": "Johan & Nystr\u00f6m"}}, {"type": "node", "id": 2302193958, "lat": 59.6479959, "lon": 17.9248798, "tags": {"amenity": "cafe", "brand": "Joe & The Juice", "brand:wikidata": "Q26221514", "brand:wikipedia": "en:Joe & The Juice", "cuisine": "coffee_shop", "layer": "1", "name": "Joe & The Juice", "takeaway": "yes"}}, {"type": "node", "id": 2304067247, "lat": 59.725722, "lon": 17.7863472}, {"type": "node", "id": 2304067248, "lat": 59.725752, "lon": 17.7864956}, {"type": "node", "id": 2304067249, "lat": 59.7255381, "lon": 17.7866658}, {"type": "node", "id": 2304067250, "lat": 59.7255081, "lon": 17.7865175}, {"type": "node", "id": 2325283560, "lat": 59.8566426, "lon": 17.646387, "tags": {"amenity": "restaurant", "diet:vegetarian": "only", "name": "Fr\u00f6jas sal", "opening_hours": "Mo-Fr 11:00-15:00"}}, {"type": "node", "id": 2331081379, "lat": 59.8664932, "lon": 17.6490305, "tags": {"addr:city": "Uppsala", "addr:country": "SE", "addr:housenumber": "3", "addr:postcode": "754 21", "addr:street": "Kvarntorget", "amenity": "restaurant", "cuisine": "pizza", "name": "H\u00f6rnet", "opening_hours": "Mo-Th 17:00-21:00; Fr 17:00-22:00; Sa 15:00-22:00; Su 15:00-21:00", "phone": "+46-18-253666", "website": "http://hornet-sevilles.se", "wheelchair": "yes"}}, {"type": "node", "id": 2337155823, "lat": 59.5827945, "lon": 17.9123294, "tags": {"amenity": "cafe", "name": "Str\u00f6ms g\u00e5rd"}}, {"type": "node", "id": 2339753136, "lat": 59.8670984, "lon": 17.6333328, "tags": {"alt_phone": "+46 18 201002", "amenity": "restaurant", "cuisine": "pizza", "name": "Pizzahuset Durango", "opening_hours": "Mo-Su 11:00-21:00; Fr,Sa 11:00-22:00", "phone": "+46 18 204949", "takeaway": "yes", "website": "http://pizzahusetdurango.se/"}}, {"type": "node", "id": 2339759548, "lat": 59.8563114, "lon": 17.6334401, "tags": {"amenity": "cafe", "cuisine": "ice_cream", "name": "Cafe Genomfarten"}}, {"type": "node", "id": 2360933611, "lat": 59.8622831, "lon": 17.6468271, "tags": {"addr:city": "Uppsala", "addr:country": "SE", "addr:housename": "Kvarnen", "addr:housenumber": "32", "addr:postcode": "753 31", "addr:street": "Vaksalagatan", "amenity": "restaurant", "check_date:opening_hours": "2021-01-30", "cuisine": "japanese", "name": "Honkaku Sushi", "opening_hours": "Mo-Th 11:00-21:00; Fr-Sa 11:00-22:00; Su 12:00-21:00", "phone": "+46-18-129595", "website": "http://www.honkakusushi.se/"}}, {"type": "node", "id": 2371303052, "lat": 59.8534235, "lon": 17.6382388}, {"type": "node", "id": 2371303053, "lat": 59.8534532, "lon": 17.6383408}, {"type": "node", "id": 2371303054, "lat": 59.8533643, "lon": 17.6384427}, {"type": "node", "id": 2371303055, "lat": 59.8533319, "lon": 17.6383408}, {"type": "node", "id": 2430681849, "lat": 59.5830919, "lon": 17.8813022}, {"type": "node", "id": 2430681850, "lat": 59.5830655, "lon": 17.8810937}, {"type": "node", "id": 2430681851, "lat": 59.5829924, "lon": 17.8811298}, {"type": "node", "id": 2430681852, "lat": 59.583029, "lon": 17.8814191}, {"type": "node", "id": 2430681853, "lat": 59.5831496, "lon": 17.8813596}, {"type": "node", "id": 2430681854, "lat": 59.5831393, "lon": 17.8812788}, {"type": "node", "id": 2430745760, "lat": 59.5834178, "lon": 17.8922343}, {"type": "node", "id": 2430745761, "lat": 59.5834626, "lon": 17.8924594}, {"type": "node", "id": 2430745762, "lat": 59.5833281, "lon": 17.8925639}, {"type": "node", "id": 2430745763, "lat": 59.5833327, "lon": 17.8925872}, {"type": "node", "id": 2430745764, "lat": 59.5832228, "lon": 17.8926725}, {"type": "node", "id": 2430745765, "lat": 59.5831848, "lon": 17.8924814}, {"type": "node", "id": 2430745766, "lat": 59.5832887, "lon": 17.8924008}, {"type": "node", "id": 2430745767, "lat": 59.5832772, "lon": 17.8923434}, {"type": "node", "id": 2437841872, "lat": 59.8598139, "lon": 17.6395274, "tags": {"addr:city": "Uppsala", "addr:country": "SE", "addr:housenumber": "36", "addr:street": "Dragarbrunnsgatan", "amenity": "restaurant", "name": "O'Leary's", "opening_hours": "Mo-Fr 16:00-23:00; Sa 13:00-24:00; Su 13:00-22:00", "operator": "O'Leary's", "phone": "+46 18 122203", "sport": "10pin", "website": "https://olearys.se/uppsala/", "wheelchair": "yes"}}, {"type": "node", "id": 2437841874, "lat": 59.860076, "lon": 17.6385301, "tags": {"amenity": "restaurant", "check_date:opening_hours": "2024-02-17", "indoor_seating": "yes", "name": "Br\u00f6dernas", "opening_hours:signed": "no", "outdoor_seating": "yes"}}, {"type": "node", "id": 2437881650, "lat": 59.860627, "lon": 17.6272505}, {"type": "node", "id": 2437881651, "lat": 59.8606608, "lon": 17.6273403}, {"type": "node", "id": 2437881652, "lat": 59.8606778, "lon": 17.6271439}, {"type": "node", "id": 2437881653, "lat": 59.860751, "lon": 17.6273852}, {"type": "node", "id": 2437881654, "lat": 59.8607707, "lon": 17.6272561}, {"type": "node", "id": 2437881657, "lat": 59.8592509, "lon": 17.6338092, "tags": {"amenity": "restaurant", "name": "\u00c5kanten", "operator": "Svenssons krogar", "wheelchair": "yes"}}, {"type": "node", "id": 2441650367, "lat": 59.8644638, "lon": 17.6438453, "tags": {"amenity": "restaurant", "cuisine": "thai;sushi", "name": "Prik Thai", "opening_hours": "Mo-Sa 11:00-20:00; Su 12:00-20:00", "phone": "+46 18 4301800", "website": "http://prikthai.se/"}}, {"type": "node", "id": 2449594407, "lat": 59.8608959, "lon": 17.6381697, "tags": {"amenity": "bar", "indoor_seating": "yes", "outdoor_seating": "yes"}}, {"type": "node", "id": 2449594430, "lat": 59.8601653, "lon": 17.6361584, "tags": {"amenity": "bar", "indoor_seating": "yes", "name": "Interpool", "opening_hours": "Mo-Th 15:00-01:00; Fr 15:00-03:00; Sa 12:00-03:00; Su 12:00-01:00", "outdoor_seating": "yes"}}, {"type": "node", "id": 2449594432, "lat": 59.8588901, "lon": 17.639022, "tags": {"addr:city": "Uppsala", "addr:country": "SE", "addr:housenumber": "10", "addr:postcode": "753 20", "addr:street": "Stora Torget", "amenity": "restaurant", "bar": "yes", "brewery": "yes", "name": "Frenchi", "outdoor_seating": "yes", "website": "http://www.frenchi.se/"}}, {"type": "node", "id": 2449594439, "lat": 59.8580925, "lon": 17.6425797, "tags": {"addr:country": "SE", "addr:housenumber": "50", "addr:street": "Dragarbrunnsgatan", "amenity": "cafe", "name": "Choco Mania", "website": "https://chocomania.se/"}}, {"type": "node", "id": 2449594440, "lat": 59.8621167, "lon": 17.63217, "tags": {"addr:city": "Uppsala", "addr:country": "SE", "addr:housenumber": "32", "addr:street": "Svartb\u00e4cksgatan", "amenity": "cafe", "name": "Caf\u00e9 Ungdomens hus", "opening_hours": "Mo-Fr 14:00-19:00", "website": "https://www.ungdomenshus.net/"}}, {"type": "node", "id": 2449594448, "lat": 59.8579188, "lon": 17.6433065, "tags": {"amenity": "restaurant", "name": "Forno Romano", "opening_hours": "Mo-Su 11:00-21:00; Fr,Sa 11:00-22:00", "phone": "+46 18 144514", "website": "https://www.fornoromano.se/"}}, {"type": "node", "id": 2449594451, "lat": 59.8582043, "lon": 17.6425904, "tags": {"amenity": "cafe", "diet:vegetarian": "yes", "name": "MoeJoe's", "opening_hours": "Mo-Fr 10:00-18:00; Sa 11:00-17:00; Su 12:00-16:00", "phone": "+46 18 101616", "website": "https://www.moejoes.se/"}}, {"type": "node", "id": 2463268751, "lat": 59.856625, "lon": 17.6488641, "tags": {"addr:city": "Uppsala", "addr:country": "SE", "addr:housenumber": "3", "addr:postcode": "75319", "addr:street": "Suttungs Gr\u00e4nd", "amenity": "restaurant", "cuisine": "regional", "name": "Peppar Peppar", "opening_hours": "Mo-Th 17:00-00:00; Fr-Su 16:00-00:00", "phone": "+4618131360", "website": "https://www.pepparpeppar.se/"}}, {"type": "node", "id": 2506312062, "lat": 59.8541268, "lon": 17.6430216}, {"type": "node", "id": 2506312065, "lat": 59.8541749, "lon": 17.6431799}, {"type": "node", "id": 2506312067, "lat": 59.8544553, "lon": 17.6426262}, {"type": "node", "id": 2506312069, "lat": 59.8545033, "lon": 17.6427844}, {"type": "node", "id": 2506312071, "lat": 59.8544941, "lon": 17.6425176}, {"type": "node", "id": 2506312073, "lat": 59.8545469, "lon": 17.6427045}, {"type": "node", "id": 2506312075, "lat": 59.8546922, "lon": 17.6422733}, {"type": "node", "id": 2506312077, "lat": 59.8547396, "lon": 17.642444}, {"type": "node", "id": 2570816729, "lat": 59.6171426, "lon": 17.725001}, {"type": "node", "id": 2570816730, "lat": 59.6171521, "lon": 17.7252976}, {"type": "node", "id": 2570816732, "lat": 59.617253, "lon": 17.7249871}, {"type": "node", "id": 2570816733, "lat": 59.6172625, "lon": 17.7252837}, {"type": "node", "id": 2570830525, "lat": 59.612781, "lon": 17.716945}, {"type": "node", "id": 2570830526, "lat": 59.6128148, "lon": 17.7167717}, {"type": "node", "id": 2570830527, "lat": 59.6129148, "lon": 17.717047}, {"type": "node", "id": 2570830528, "lat": 59.6129486, "lon": 17.7168736}, {"type": "node", "id": 2570830529, "lat": 59.6130662, "lon": 17.7175264}, {"type": "node", "id": 2570830530, "lat": 59.6130942, "lon": 17.7173885}, {"type": "node", "id": 2570830531, "lat": 59.6131531, "lon": 17.7175953}, {"type": "node", "id": 2570830532, "lat": 59.6131811, "lon": 17.7174575}, {"type": "node", "id": 2611399977, "lat": 59.8680253, "lon": 17.6625647}, {"type": "node", "id": 2611399985, "lat": 59.8681103, "lon": 17.6621682}, {"type": "node", "id": 2611399987, "lat": 59.8681179, "lon": 17.6626397}, {"type": "node", "id": 2611399995, "lat": 59.8681999, "lon": 17.6622814}, {"type": "node", "id": 2612648979, "lat": 59.5219084, "lon": 17.8996285, "tags": {"amenity": "cafe", "contact:phone": "+46-073-9010625", "name": "Gr\u00f6nberg Cafe", "organisationsnummer": "720901-1472", "source": "K\u00e4lla f\u00f6r amenity, name, organisationsnummer och phone \u00e4r ett kvitto Fredag, Januari 3 2014."}}, {"type": "node", "id": 2636547133, "lat": 59.8507513, "lon": 17.6313803, "tags": {"amenity": "restaurant", "cuisine": "fish;meat;thai", "diet:vegetarian": "yes", "name": "Restaurang Feiroz - Bl\u00e5senhus", "organisationsnummer": "969670-6853", "phone": "+46-18-591918", "source": "Receipt at 2014-01-23", "website": "https://restaurangfeiroz.se/"}}, {"type": "node", "id": 2639118639, "lat": 59.6226478, "lon": 17.7531019, "tags": {"amenity": "restaurant", "cuisine": "pizza"}}, {"type": "node", "id": 2653549203, "lat": 59.8585485, "lon": 17.6488464, "tags": {"amenity": "restaurant", "cuisine": "kebab;pizza", "name": "D\u00f6ner & Co", "opening_hours": "Mo-Fr 09:00-22:00, Sa 11:00-23:00, Su 11:00-20:00"}}, {"type": "node", "id": 2696419984, "lat": 59.8989087, "lon": 17.6330034}, {"type": "node", "id": 2696419986, "lat": 59.8989385, "lon": 17.632848}, {"type": "node", "id": 2696420013, "lat": 59.8991329, "lon": 17.633258}, {"type": "node", "id": 2696420017, "lat": 59.8991469, "lon": 17.6331853}, {"type": "node", "id": 2696420019, "lat": 59.8991809, "lon": 17.6332802}, {"type": "node", "id": 2696420021, "lat": 59.899195, "lon": 17.633207}, {"type": "node", "id": 2696420023, "lat": 59.8992093, "lon": 17.6333995}, {"type": "node", "id": 2696420027, "lat": 59.899213, "lon": 17.6332207}, {"type": "node", "id": 2696420030, "lat": 59.8992257, "lon": 17.6333143}, {"type": "node", "id": 2696420036, "lat": 59.8992403, "lon": 17.6330784}, {"type": "node", "id": 2696624603, "lat": 59.860726, "lon": 17.629062, "tags": {"addr:city": "Uppsala", "addr:country": "SE", "addr:housenumber": "21", "addr:postcode": "75311", "addr:street": "Skolgatan", "amenity": "restaurant", "cuisine": "italian", "name": "Brezza", "opening_hours": "Mo-Tu 16:30-22:00; We-Sa 16:30-24:00; Su 16:30-22:00", "phone": "+46 18 711540", "website": "https://www.brezza.se/", "wheelchair": "no"}}, {"type": "node", "id": 2736726961, "lat": 59.521595, "lon": 17.9002477, "tags": {"addr:city": "Upplands V\u00e4sby", "addr:country": "SE", "addr:housename": "J\u00e4rnv\u00e4gsstationen", "addr:postcode": "194 76", "addr:street": "Centralv\u00e4gen", "amenity": "restaurant", "name": "Restaurang China Thai", "opening_hours": "Mo-Th 10:30-21:00, 09:00-18:00; Fr 10:30-22:00; Sa 12:00-22:00; Su 12:00-21:00", "phone": "+46 8-594 751 00", "source": "http://www.upplandsvasby.se/2/uppleva-och-gora/turism-och-sevardheter/turism/ata/restauranger.html", "wheelchair": "yes"}}, {"type": "node", "id": 2773904690, "lat": 59.8582205, "lon": 17.6462566, "tags": {"amenity": "cafe", "brand": "Caff\u00e8 Nero", "brand:wikidata": "Q675808", "bulk_purchase": "yes", "cuisine": "coffee_shop", "diet:vegan": "no", "diet:vegetarian": "yes", "email": "resecentrum@bygeorge.se", "name": "Caff\u00e8 Nero", "opening_hours": "Mo-Fr 06:00-19:00; Sa-Su 07:00-18:00", "phone": "+4618120070", "takeaway": "yes", "website": "https://caffenero.com/se"}}, {"type": "node", "id": 2778409288, "lat": 59.8582751, "lon": 17.6427034, "tags": {"amenity": "restaurant", "cuisine": "mexican", "diet:vegetarian": "yes", "email": "uppsala@zocalo.se", "name": "Z\u00f3calo", "opening_hours": "Mo-Sa 11:00-22:00; Su 12:00-20:00", "phone": "+46 18 10 15 20", "website": "https://zocalo.se/"}}, {"type": "node", "id": 2785763948, "lat": 59.8506991, "lon": 17.6912513, "tags": {"addr:city": "Uppsala", "addr:country": "SE", "addr:housenumber": "20", "addr:postcode": "73523", "addr:street": "Bolandsgatan", "amenity": "restaurant", "cuisine": "pizza", "entrance": "yes", "name": "Ken's", "opening_hours": "09:00-20:00", "source": "survey", "website": "https://kens.se/"}}, {"type": "node", "id": 2787033106, "lat": 59.521155, "lon": 17.9016885, "tags": {"addr:city": "Upplands V\u00e4sby", "addr:country": "SE", "addr:housenumber": "2", "addr:postcode": "19476", "addr:street": "Centralv\u00e4gen", "amenity": "cafe", "capacity": "70", "contact:email": "vasbynya@gmail.com", "contact:phone": "+46 8-590 300 41", "cuisine": "coffee_shop", "name": "V\u00e4sby Nya Konditori", "opening_hours": "Mo-Fr 06:00-18:00; Sa 07:00-18:00; Su 09:00-17:00", "toilets:wheelchair": "yes", "website": "https://www.vasbynyakonditori.se/", "wheelchair": "yes"}}, {"type": "node", "id": 2791269742, "lat": 59.8580642, "lon": 17.636028, "tags": {"addr:city": "Uppsala", "addr:country": "SE", "addr:housenumber": "8", "addr:street": "Fyristorg", "amenity": "restaurant", "cuisine": "fish", "email": "info@hambergs.se", "name": "Hambergs Fisk", "opening_hours": "Tu-Sa 10:00-22:00", "phone": "+46 18 712150", "website": "https://www.hambergs.se/", "wheelchair": "no"}}, {"type": "node", "id": 2792384100, "lat": 59.8637114, "lon": 17.6219973, "tags": {"addr:city": "Uppsala", "addr:country": "SE", "addr:housenumber": "14", "addr:postcode": "75226", "addr:street": "Geijersgatan", "amenity": "restaurant", "cuisine": "sushi", "name": "Ayakos sushi", "wheelchair": "no"}}, {"type": "node", "id": 2796349923, "lat": 59.8664639, "lon": 17.6083339, "tags": {"addr:city": "Uppsala", "addr:country": "SE", "addr:housenumber": "1", "addr:street": "Mimmi Ekholms plats", "amenity": "restaurant", "name": "La Piazza", "phone": "+46 18 510000"}}, {"type": "node", "id": 2814149367, "lat": 59.8610621, "lon": 17.6345598, "tags": {"addr:city": "Uppsala", "addr:country": "SE", "addr:housenumber": "19", "addr:street": "Svartb\u00e4cksgatan", "amenity": "restaurant", "email": "info@paulette.se", "name": "Paulette Brasserie", "opening_hours": "Mo-Fr 11:30-24:00; Sa 00:00-01:00,12:00-24:00; Su 00:00-01:00", "phone": "+46 18 100016", "website": "https://paulette.se/"}}, {"type": "node", "id": 2879576143, "lat": 59.6326801, "lon": 17.4774087, "tags": {"amenity": "cafe"}}, {"type": "node", "id": 2917931032, "lat": 59.863668, "lon": 17.6586774, "tags": {"amenity": "restaurant", "cuisine": "pizza", "name": "Apadana", "opening_hours": "Mo-Fr 15:00-22:00, Sa 12:00-22:00, Su 13:00-21:00"}}, {"type": "node", "id": 2920974896, "lat": 59.8683958, "lon": 17.6290392}, {"type": "node", "id": 2920974897, "lat": 59.8685042, "lon": 17.629813}, {"type": "node", "id": 2920974898, "lat": 59.8685378, "lon": 17.6289603}, {"type": "node", "id": 2920974899, "lat": 59.8686462, "lon": 17.6297341}, {"type": "node", "id": 2941110805, "lat": 59.6153283, "lon": 17.7196659, "tags": {"addr:city": "Sigtuna", "addr:country": "SE", "addr:housename": "RC Chocolat", "addr:housenumber": "59", "addr:postcode": "19330", "addr:street": "Stora Gatan", "amenity": "cafe", "cuisine": "ice_cream", "name": "RC Chocolat", "phone": "+46 859480385", "website": "https://www.rcchocolat.se/"}}, {"type": "node", "id": 2996363627, "lat": 59.8097205, "lon": 17.6295286, "tags": {"addr:city": "Uppsala", "addr:country": "SE", "addr:housenumber": "7", "addr:postcode": "75650", "addr:street": "Valthornsv\u00e4gen", "amenity": "restaurant", "check_date": "2023-05-19", "cuisine": "asian", "name": "Mandarin Garden", "opening_hours": "Mo,Sa 12:00-21:00; Tu-Fr 10:30-21:00; Su 11:00-21:00", "phone": "+46-18-40 41 10", "website": "http://www.restaurangmandaringarden.se/", "wheelchair": "yes"}}, {"type": "node", "id": 2996363630, "lat": 59.8110974, "lon": 17.6284502, "tags": {"amenity": "restaurant", "check_date": "2023-05-19", "name": "Ken's", "opening_hours": "10:00-20:00", "wheelchair": "limited"}}, {"type": "node", "id": 3010062436, "lat": 59.6628897, "lon": 17.4868623, "tags": {"amenity": "cafe", "name": "Biskops-Arn\u00f6"}}, {"type": "node", "id": 3012120944, "lat": 59.8107312, "lon": 17.6294347, "tags": {"amenity": "restaurant", "cuisine": "sushi", "name": "Asahi Sushi", "opening_hours": "Mo-Su 11:00-20:00", "wheelchair": "yes"}}, {"type": "node", "id": 3014414958, "lat": 59.8595825, "lon": 17.6414369, "tags": {"amenity": "cafe", "name": "Joy's", "opening_hours": "Mo-Fr 07:00-19:30; Sa,Su 10:00-15:30", "smoking": "no"}}, {"type": "node", "id": 3014436119, "lat": 59.8573752, "lon": 17.6299334, "tags": {"amenity": "cafe", "level": "-1", "name": "Cafe Alma", "operator": "Cajsas K\u00f6k"}}, {"type": "node", "id": 3015152640, "lat": 59.858346, "lon": 17.6416868, "tags": {"addr:city": "Uppsala", "addr:country": "SE", "addr:housenumber": "43A", "addr:street": "Dragarbrunnsgatan", "amenity": "restaurant", "diet:vegan": "yes", "diet:vegetarian": "yes", "name": "Bastard Burgers", "opening_hours": "Mo-Th 11:00-20:00; Fr,Sa 11:00-21:00; Su 12:00-17:00", "website": "https://bastardburgers.se/"}}, {"type": "node", "id": 3025771509, "lat": 59.861578, "lon": 17.6274551, "tags": {"amenity": "restaurant", "name": "Lutisk\u00f6ket", "opening_hours": "Mo-Fr 09:00-15:00", "toilets:wheelchair": "yes", "website": "https://www.ica.se/butiker/supermarket/uppsala/ica-supermarket-luthagens-livs-1495/start/", "wheelchair": "yes"}}, {"type": "node", "id": 3048920263, "lat": 59.8564475, "lon": 17.642607, "tags": {"addr:city": "Uppsala", "addr:country": "SE", "addr:housenumber": "23", "addr:postcode": "75322", "addr:street": "Kungs\u00e4ngsgatan", "amenity": "restaurant", "cuisine": "chinese", "diet:vegan": "yes", "diet:vegetarian": "yes", "name": "Golden China", "opening_hours": "Mo-Fr 11:00-22:00;Sa-Su 12:00-22:00", "phone": "+4618138636", "source": "http://www.kinakrogen.se", "website": "http://www.kinakrogen.se", "wheelchair": "no"}}, {"type": "node", "id": 3065190053, "lat": 59.6283333, "lon": 17.8583152, "tags": {"addr:city": "M\u00e4rsta", "addr:country": "SE", "addr:housenumber": "4", "addr:street": "Stationsgatan", "amenity": "restaurant", "cuisine": "pizza", "name": "Campino"}}, {"type": "node", "id": 3065193717, "lat": 59.628378, "lon": 17.8588674, "tags": {"addr:city": "M\u00e4rsta", "addr:country": "SE", "addr:housenumber": "4", "addr:street": "Stationsgatan", "amenity": "restaurant", "cuisine": "regional", "name": "Vinyl"}}, {"type": "node", "id": 3065266401, "lat": 59.6280862, "lon": 17.8572313, "tags": {"amenity": "restaurant", "name": "Fyra Sm\u00e5 R\u00e4tter"}}, {"type": "node", "id": 3065266648, "lat": 59.6198127, "lon": 17.8530738, "tags": {"amenity": "restaurant", "name": "Alanya"}}, {"type": "node", "id": 3065275271, "lat": 59.619844, "lon": 17.8527734, "tags": {"amenity": "restaurant", "indoor_seating": "yes", "name": "Olearys", "outdoor_seating": "yes"}}, {"type": "node", "id": 3243454683, "lat": 59.6834208, "lon": 17.285998, "tags": {"amenity": "restaurant"}}, {"type": "node", "id": 3323742084, "lat": 59.6277133, "lon": 17.8590871, "tags": {"amenity": "restaurant"}}, {"type": "node", "id": 3344681668, "lat": 59.5214391, "lon": 17.9024107, "tags": {"amenity": "bar", "name": "Tiger bar", "source": "survey"}}, {"type": "node", "id": 3397876229, "lat": 59.5215398, "lon": 17.9039459, "tags": {"addr:city": "Upplands V\u00e4sby", "addr:country": "SE", "addr:housenumber": "1C", "addr:postcode": "19477", "addr:street": "Kvarnv\u00e4gen", "amenity": "restaurant", "cuisine": "pizza", "name": "Pizzeria Valentino"}}, {"type": "node", "id": 3399991598, "lat": 59.866346, "lon": 17.6077853, "tags": {"addr:city": "Uppsala", "addr:country": "SE", "addr:housenumber": "7", "addr:street": "Mimmi Ekholms plats", "amenity": "restaurant", "cuisine": "sushi", "name": "Asahi Sushi", "opening_hours": "Mo-Fr 11:00-20:30; Sa,Su 12:00-20:30", "phone": "+46 18 501818", "website": "http://www.asahisushi.se/"}}, {"type": "node", "id": 3400013345, "lat": 59.8663109, "lon": 17.6074325, "tags": {"addr:city": "Uppsala", "addr:country": "SE", "addr:housenumber": "9", "addr:street": "Mimmi Ekholms plats", "amenity": "cafe", "name": "Caf\u00e9 & Butik", "opening_hours": "Mo-Fr 07:00-18:00; Sa,Su 09:00-16:00", "phone": "+46 18 309017", "website": "https://strabagarn.krillanscafe.kvartersmenyn.se/"}}, {"type": "node", "id": 3402766795, "lat": 59.8439978, "lon": 17.6167124, "tags": {"addr:city": "Uppsala", "addr:country": "SE", "addr:housenumber": "46A", "addr:postcode": "75239", "addr:street": "Norbyv\u00e4gen", "amenity": "restaurant", "email": "info@norby46.se", "name": "Bistro H\u00f6rnan", "opening_hours": "Mo-Th 16:00-21:00; Fr 16:00-22:00; Sa 13:00-22:00; Su 13:00-21:00", "phone": "+46 18 512100", "website": "https://www.bistrohornan.se/"}}, {"type": "node", "id": 3463189157, "lat": 59.616013, "lon": 17.720399, "tags": {"addr:city": "Sigtuna", "addr:country": "SE", "addr:housenumber": "52", "addr:postcode": "19330", "addr:street": "Stora Gatan", "amenity": "cafe", "fixme": "location on Stora Gatan needs cofirming", "name": "Cafe Myntet", "opening_hours": "Mo-Fr 10:00-18:30; Sa, Su 10:00-19:00", "source": "survey"}}, {"type": "node", "id": 3508158022, "lat": 59.6162025, "lon": 17.7238764, "tags": {"amenity": "cafe", "name": "Strandvillan's Cafe"}}, {"type": "node", "id": 3508167368, "lat": 59.6169565, "lon": 17.7226008, "tags": {"addr:city": "Sigtuna", "addr:country": "SE", "addr:housenumber": "40c", "addr:postcode": "193 30", "addr:street": "Stora Gatan", "air_conditioning": "yes", "amenity": "restaurant", "changing_table": "yes", "contact:facebook": "cafebistrovalvet", "contact:instagram": "cafebistrovalvet", "cuisine": "local;coffee_shop;meat;fish", "diet:vegetarian": "yes", "internet_access": "wlan", "name": "Valvet", "opening_hours": "Mo,Tu 08:00-21:00; We,Th 08:00-22:00; Fr 08:00-22:30; Sa 10:00-22:00; Su 10:00-21:00", "payment:cash": "yes", "payment:credit_cards": "yes", "payment:debit_cards": "yes", "phone": "+46 8 592 555 25", "smoking": "no", "toilets": "yes", "toilets:wheelchair": "yes", "website": "https://bistrocafevalvet.se/", "wheelchair": "yes"}}, {"type": "node", "id": 3508171517, "lat": 59.6167137, "lon": 17.7221554, "tags": {"addr:street": "Stora Gatan", "amenity": "restaurant", "name": "Kopparkitteln"}}, {"type": "node", "id": 3542090438, "lat": 59.8584241, "lon": 17.6410018, "tags": {"addr:city": "Uppsala", "addr:country": "SE", "addr:housenumber": "9", "addr:street": "Smedsgr\u00e4nd", "amenity": "restaurant", "cuisine": "thai", "name": "Thai Village", "opening_hours": "Mo-Fr 11:00-22:00; Sa 12:00-22:00; Su 12:00-21:00", "phone": "+46 18 121314", "website": "http://www.thaivillage.se/"}}, {"type": "node", "id": 3542409688, "lat": 59.8613521, "lon": 17.6335864, "tags": {"addr:city": "Uppsala", "addr:country": "SE", "addr:housenumber": "22", "addr:street": "Svartb\u00e4cksgatan", "amenity": "restaurant", "cuisine": "italian", "name": "Appolonia - Cucina Italiana"}}, {"type": "node", "id": 3627554761, "lat": 59.5208099, "lon": 17.9047393, "tags": {"amenity": "restaurant", "cuisine": "pizza", "name": "Italian Slice", "opening_hours": "Mo-Fr 10:00-21:00; Sa,Su 11:00-21:00", "phone": "+46 8 590 888 65", "takeaway": "yes", "website": "http://www.italian-slice.se/"}}, {"type": "node", "id": 3635989974, "lat": 59.7049763, "lon": 17.6242974, "tags": {"amenity": "cafe", "name": "Sj\u00f6villans caf\u00e9"}}, {"type": "node", "id": 3635993696, "lat": 59.702925, "lon": 17.6211579, "tags": {"amenity": "cafe", "name": "Skoklosters slott"}}, {"type": "node", "id": 3661947064, "lat": 59.7311273, "lon": 17.3064342, "tags": {"amenity": "restaurant", "cuisine": "regional", "name": "Liljeg\u00e5rdens restaurang", "source": "Local knowledge"}}, {"type": "node", "id": 3674015251, "lat": 59.6208428, "lon": 17.8732814}, {"type": "node", "id": 3674015252, "lat": 59.6208505, "lon": 17.8733953}, {"type": "node", "id": 3674015253, "lat": 59.6208684, "lon": 17.8731999}, {"type": "node", "id": 3674015255, "lat": 59.6208857, "lon": 17.8731194}, {"type": "node", "id": 3674015256, "lat": 59.6208889, "lon": 17.8731965}, {"type": "node", "id": 3674015259, "lat": 59.6209108, "lon": 17.8734719}, {"type": "node", "id": 3674015263, "lat": 59.6210145, "lon": 17.8730586}, {"type": "node", "id": 3674015267, "lat": 59.621031, "lon": 17.8734301}, {"type": "node", "id": 3674015270, "lat": 59.6210533, "lon": 17.8730072}, {"type": "node", "id": 3674015271, "lat": 59.6210674, "lon": 17.8734765}, {"type": "node", "id": 3674015273, "lat": 59.6210955, "lon": 17.87301}, {"type": "node", "id": 3674015276, "lat": 59.6211036, "lon": 17.8730938}, {"type": "node", "id": 3674015279, "lat": 59.6211528, "lon": 17.8730753}, {"type": "node", "id": 3674015287, "lat": 59.6211954, "lon": 17.8734138}, {"type": "node", "id": 3689233202, "lat": 59.8618039, "lon": 17.6421442, "tags": {"addr:city": "Uppsala", "addr:postcode": "753 29", "addr:street": "Sankt Persgatan", "amenity": "restaurant", "cuisine": "italian", "name": "Trattoria Alessandro", "opening_hours": "Mo-Fr 17:00-22:00; Sa 16:00-22:00; Su 16:00-21:00", "outdoor_seating": "yes", "phone": "+4618-12 34 50", "website": "http://trattoriaalessandro.se/"}}, {"type": "node", "id": 3754100105, "lat": 59.7280776, "lon": 17.7859255, "tags": {"addr:city": "Knivsta", "addr:country": "SE", "addr:housenumber": "19f", "addr:postcode": "74140", "addr:street": "Centralv\u00e4gen", "amenity": "restaurant", "cuisine": "pizza", "name": "Pidos Pizza", "opening_hours": "Mo-Fr 11:00-21:00; Sa,Su 12:00-21:00", "survey:date": "2023-05-11"}}, {"type": "node", "id": 3763351183, "lat": 59.7281368, "lon": 17.7858917, "tags": {"addr:city": "Knivsta", "addr:country": "SE", "addr:housenumber": "19g", "addr:postcode": "74140", "addr:street": "Centralv\u00e4gen", "amenity": "restaurant", "name": "Kungsh\u00f6rnet", "opening_hours": "Mo-Fr 10:00-00:00; Sa 12:00-02:00", "survey:date": "2023-05-11"}}, {"type": "node", "id": 3810114295, "lat": 59.7513924, "lon": 17.8958646, "tags": {"addr:city": "Knivsta", "addr:country": "SE", "addr:housenumber": "405", "addr:postcode": "74194", "addr:street": "\u00c5sby Hagalund", "amenity": "restaurant", "contact:phone": "+46 72 273 92 29", "cuisine": "thai", "name": "Nui Thai", "opening_hours": "Mo-Fr 11:00-20:00; Sa-Su 12:00-20:00", "outdoor_seating": "yes", "takeaway": "yes"}}, {"type": "node", "id": 3878677259, "lat": 59.5655503, "lon": 17.5355352, "tags": {"amenity": "restaurant", "cuisine": "thai", "name": "Thai Hua Sui"}}, {"type": "node", "id": 3921247129, "lat": 59.521545, "lon": 17.9020032, "tags": {"amenity": "cafe", "cuisine": "coffee_shop", "name": "Twentyone"}}, {"type": "node", "id": 3941524493, "lat": 59.8585541, "lon": 17.6428098, "tags": {"amenity": "restaurant", "cuisine": "japanese", "name": "Ai", "opening_hours": "Mo-Th 11:00-22:00; Fr,Sa 11:00-23:00; Su,PH 12:00-22:00"}}, {"type": "node", "id": 4002114989, "lat": 59.856686, "lon": 17.6350951, "tags": {"amenity": "restaurant", "name": "Cousteau Bistro Bar", "phone": "+46 18 120170", "website": "https://www.cousteau.se/"}}, {"type": "node", "id": 4002129389, "lat": 59.8566375, "lon": 17.6349342, "tags": {"amenity": "nightclub", "name": "Escobar", "website": "http://www.escobar.se/"}}, {"type": "node", "id": 4111909546, "lat": 59.7826085, "lon": 17.626379, "tags": {"entrance": "main"}}, {"type": "node", "id": 4127222025, "lat": 59.8598727, "lon": 17.634205, "tags": {"amenity": "restaurant", "cuisine": "lebanese", "email": "info@meza.nu", "name": "Meza", "opening_hours": "Mo-Fr 11:00-22:00;  Sa 12:00-22:00; Su 13:00-22:00", "outdoor_seating": "yes", "phone": "+4618100011", "smoking": "outside", "website": "https://meza.nu/", "wheelchair": "limited"}}, {"type": "node", "id": 4278277680, "lat": 59.8640886, "lon": 17.6445394, "tags": {"amenity": "restaurant", "name": "Akropolis"}}, {"type": "node", "id": 4317964260, "lat": 59.8604485, "lon": 17.6378248, "tags": {"amenity": "restaurant", "indoor_seating": "yes", "name": "Kitchen & table", "outdoor_seating": "no"}}, {"type": "node", "id": 4339115265, "lat": 59.8758572, "lon": 17.6408466, "tags": {"amenity": "restaurant", "name": "Scandic"}}, {"type": "node", "id": 4339456026, "lat": 59.8573282, "lon": 17.6403478, "tags": {"addr:city": "Uppsala", "addr:country": "SE", "addr:housenumber": "4", "addr:postcode": "75320", "addr:street": "Bredgr\u00e4nd", "amenity": "restaurant", "name": "La Ruelle"}}, {"type": "node", "id": 4339467747, "lat": 59.8601946, "lon": 17.6395044, "tags": {"amenity": "restaurant"}}, {"type": "node", "id": 4339467873, "lat": 59.846838, "lon": 17.6116047, "tags": {"amenity": "bar", "name": "Mammas Meze"}}, {"type": "node", "id": 4339467875, "lat": 59.8606041, "lon": 17.6395875, "tags": {"amenity": "bar", "name": "Red room"}}, {"type": "node", "id": 4339468006, "lat": 59.8598984, "lon": 17.6382194, "tags": {"addr:city": "Uppsala", "addr:country": "SE", "addr:housenumber": "10", "addr:postcode": "75320", "addr:street": "Sankt Persgatan", "amenity": "restaurant", "cuisine": "italian;pizza;pasta", "indoor_seating": "yes", "name": "Taverna Panini", "opening_hours": "Mo-Su 11:00-22:00", "outdoor_seating": "yes", "phone": "+46 18 141401", "website": "https://panini.se/"}}, {"type": "node", "id": 4339470010, "lat": 59.8573857, "lon": 17.6404891, "tags": {"amenity": "cafe", "diet:vegan": "yes", "diet:vegetarian": "yes", "name": "Uno", "opening_hours": "Mo-Fr 09:00-20:00; Sa 10:00-18:00; Su 11:00-18:00", "website": "https://www.unofikabutik.se/"}}, {"type": "node", "id": 4339470193, "lat": 59.8603813, "lon": 17.6398102, "tags": {"addr:city": "Uppsala", "addr:country": "SE", "addr:housenumber": "17", "addr:street": "Sankt Persgatan", "amenity": "bar", "name": "Lion Bar", "website": "https://lionbar.se"}}, {"type": "node", "id": 4339470275, "lat": 59.8612111, "lon": 17.6365025, "tags": {"addr:city": "Uppsala", "addr:country": "SE", "addr:housenumber": "15", "addr:postcode": "75320", "addr:street": "Dragarbrunnsgatan", "amenity": "restaurant", "cuisine": "italian", "name": "Ll'Amice", "opening_hours": "Mo-Fr 17:00-22:00; Sa,Su 12:00-22:00", "phone": "+46 18 7001717", "website": "https://llamice.se/restauranger/uppsala/"}}, {"type": "node", "id": 4339470522, "lat": 59.85747, "lon": 17.6406201, "tags": {"amenity": "cafe", "description": "Kung Fu tea, coffee, non-alcoholic cold drinks, lunch", "diet:vegan": "yes", "diet:vegetarian": "yes", "internet_access": "yes", "name": "Yocha", "opening_hours": "Mo-Fr 10:00-19:00; Sa 10:00-17:00; Su 12:00-16:00", "shop": "tea", "website": "https://www.yochastudio.com/"}}, {"type": "node", "id": 4339470536, "lat": 59.8556586, "lon": 17.6439473, "tags": {"addr:city": "Uppsala", "addr:country": "SE", "addr:housenumber": "5A", "addr:postcode": "75319", "addr:street": "B\u00e4verns gr\u00e4nd", "amenity": "restaurant", "name": "Curry & Ris", "opening_hours": "Mo-Fr 11:00-22:00;Sa,Su 13:00-22:00", "phone": "+46 70 7644334", "website": "http://www.curryandris.se/"}}, {"type": "node", "id": 4339475040, "lat": 59.8566016, "lon": 17.6470027, "tags": {"amenity": "restaurant", "check_date:opening_hours": "2023-08-31", "name": "Hikari Sushi", "opening_hours": "Mo-Su 11:00-21:00", "phone": "+46-184065337"}}, {"type": "node", "id": 4339475208, "lat": 59.8578185, "lon": 17.643051, "tags": {"amenity": "restaurant", "name": "Forno Romano"}}, {"type": "node", "id": 4339475228, "lat": 59.8567319, "lon": 17.6425296, "tags": {"amenity": "restaurant", "name": "Jappi"}}, {"type": "node", "id": 4339477663, "lat": 59.8579247, "lon": 17.6393919, "tags": {"amenity": "cafe", "brand": "Wayne's Coffee", "brand:wikidata": "Q2637272", "brand:wikipedia": "en:Wayne's Coffee", "cuisine": "coffee_shop", "name": "Wayne's Coffee", "takeaway": "yes"}}, {"type": "node", "id": 4339479050, "lat": 59.8596896, "lon": 17.6371612, "tags": {"amenity": "cafe", "brand": "Espresso House", "brand:wikidata": "Q10489162", "brand:wikipedia": "en:Espresso House", "cuisine": "coffee_shop", "name": "Espresso House", "takeaway": "yes"}}, {"type": "node", "id": 4339481381, "lat": 59.8600075, "lon": 17.6368113, "tags": {"addr:city": "Uppsala", "addr:country": "SE", "addr:housenumber": "7-11", "addr:postcode": "753 20", "addr:street": "Svartb\u00e4cksgatan", "amenity": "restaurant", "cuisine": "indian", "name": "Taste of Chilli", "opening_hours": "Mo-Th 10:00-21:00; Fr,Sa 10:00-22:00; Su 12:00-21:00"}}, {"type": "node", "id": 4339484416, "lat": 59.860125, "lon": 17.63404, "tags": {"amenity": "cafe", "diet:vegan": "yes", "diet:vegetarian": "yes", "name": "Caf\u00e9 \u00c5rummet", "opening_hours": "Mo-Fr 09:00-22:00; Sa 10:00-22:00; Su 10:00-22:00"}}, {"type": "node", "id": 4339485117, "lat": 59.8593975, "lon": 17.6376748, "tags": {"amenity": "cafe", "indoor_seating": "yes", "name": "Unico", "outdoor_seating": "yes"}}, {"type": "node", "id": 4339517351, "lat": 59.8652272, "lon": 17.6637435, "tags": {"amenity": "restaurant", "name": "Lovely India", "opening_hours": "Mo-Th 11:00-21:00, Fr 11:00-22:00, Sa 12:00-22:00, Su 12:00-21:00"}}, {"type": "node", "id": 4340138289, "lat": 59.8614573, "lon": 17.6289322, "tags": {"addr:country": "SE", "addr:housenumber": "4A", "addr:postcode": "75314", "addr:street": "Sturegatan", "amenity": "restaurant", "check_date:opening_hours": "2023-08-22", "cuisine": "african", "email": "info@messob.se", "name": "Messob", "opening_hours": "Mo-Th 17:00-22:00; Fr-Sa 17:00-23:00; Su off", "phone": "+46 18 500020", "website": "https://messob.se/", "wheelchair": "yes"}}, {"type": "node", "id": 4340138421, "lat": 59.8612311, "lon": 17.6292778, "tags": {"amenity": "restaurant", "name": "Hui Bai Jia"}}, {"type": "node", "id": 4340138681, "lat": 59.8615786, "lon": 17.6309836, "tags": {"amenity": "restaurant", "name": "GinnDee Sushi & Wok", "opening_hours": "Mo-Fr 11:00-21:00; Sa,Su 12:00-21:00", "wheelchair": "no"}}, {"type": "node", "id": 4340138762, "lat": 59.8615246, "lon": 17.6313565, "tags": {"amenity": "bar"}}, {"type": "node", "id": 4340217216, "lat": 59.8520991, "lon": 17.6281993, "tags": {"amenity": "cafe", "name": "Orangeriet", "opening_hours": "Jun-Aug: Mo-Fr 09:00-15:00; Sep-May: Tu-Fr 09:00-15:00"}}, {"type": "node", "id": 4340227857, "lat": 59.8479457, "lon": 17.6346546, "tags": {"addr:city": "Uppsala", "addr:country": "SE", "addr:housenumber": "39", "addr:postcode": "75237", "addr:street": "Von Kraemers All\u00e9", "amenity": "restaurant", "bar": "yes", "email": "info@johannaochmat.se", "name": "Johanna & Mat", "outdoor_seating": "yes", "phone": "+46 18 701 12 00", "reservation": "yes", "takeaway": "yes", "website": "https://www.johannaochmat.se/", "wheelchair": "yes"}}, {"type": "node", "id": 4340235073, "lat": 59.8740631, "lon": 17.6364729, "tags": {"amenity": "restaurant", "name": "Don P\u00e1palo"}}, {"type": "node", "id": 4340263529, "lat": 59.8772457, "lon": 17.6467834, "tags": {"amenity": "restaurant", "name": "Restaurang Bestani", "phone": "+46-18248900"}}, {"type": "node", "id": 4340265476, "lat": 59.8778083, "lon": 17.6472775, "tags": {"amenity": "restaurant", "name": "Tr\u00e4dg\u00e5rden"}}, {"type": "node", "id": 4340273161, "lat": 59.8637916, "lon": 17.6586221, "tags": {"amenity": "bar", "name": "Under Bar"}}, {"type": "node", "id": 4345053636, "lat": 59.8626341, "lon": 17.6446356, "tags": {"amenity": "restaurant", "check_date": "2022-06-28", "name": "Phil's Burger", "opening_hours": "Su-Tu 11:00-20:00; We-Fr 11:00-21:00; Sa 12:00-21:00"}}, {"type": "node", "id": 4345053799, "lat": 59.878507, "lon": 17.6188906, "tags": {"addr:city": "Uppsala", "addr:country": "SE", "addr:housenumber": "33", "addr:postcode": "75337", "addr:street": "Tunagatan", "amenity": "restaurant", "name": "Taste of Bangla", "opening_hours": "Mo-Fr 11:00-22:00; Sa,Su 13:00-22:00", "phone": "+46 18 248036", "website": "https://tasteofbangla.se/uppsala/"}}, {"type": "node", "id": 4345053986, "lat": 59.8641843, "lon": 17.6443508, "tags": {"amenity": "bar", "name": "K\u00f6tt k\u00f6k & bar"}}, {"type": "node", "id": 4345058841, "lat": 59.8632444, "lon": 17.6494973, "tags": {"addr:city": "Uppsala", "addr:country": "SE", "addr:housenumber": "37", "addr:postcode": "75331", "addr:street": "Vaksalagatan", "amenity": "restaurant", "check_date:opening_hours": "2022-10-28", "contact:phone": "\u202d+46 18 150 120\u202c", "contact:website": "https://www.naanchili.se/", "name": "Naan & Chili", "opening_hours": "Sa 13:00-22:00; Su 13:00-21:00; Mo-Th 11:00-14:00,17:00-21:00; Fr 11:00-14:00,17:00-22:00"}}, {"type": "node", "id": 4345063892, "lat": 59.8758977, "lon": 17.6330384, "tags": {"addr:city": "Uppsala", "addr:country": "SE", "addr:housenumber": "25", "addr:street": "Anundsgatan", "amenity": "restaurant", "contact:phone": "+46 18 10 13 33", "contact:website": "https://www.blackbrook.se/", "name": "Black Brook"}}, {"type": "node", "id": 4345091218, "lat": 59.8570987, "lon": 17.6360042, "tags": {"amenity": "cafe", "name": "Caff\u00e9 Latte"}}, {"type": "node", "id": 4345108355, "lat": 59.8681026, "lon": 17.6262157, "tags": {"amenity": "restaurant"}}, {"type": "node", "id": 4345108385, "lat": 59.8690389, "lon": 17.626683, "tags": {"amenity": "cafe", "name": "Cafe Livs"}}, {"type": "node", "id": 4345424338, "lat": 59.7892036, "lon": 17.6192809, "tags": {"amenity": "cafe", "name": "Sommarcaf\u00e9 p\u00e5 Ekolsn\u00e4s", "opening_hours": "Mo-Su 11:00-17:00"}}, {"type": "node", "id": 4345426790, "lat": 59.8125828, "lon": 17.4977393, "tags": {"amenity": "restaurant", "name": "Golf Uppsala", "phone": "+46-184301970"}}, {"type": "node", "id": 4345435873, "lat": 59.8930309, "lon": 17.6386691, "tags": {"amenity": "restaurant", "name": "Restaurang Maestro", "opening_hours": "Mo-Su 11:00-22:00"}}, {"type": "node", "id": 4346025934, "lat": 59.8541629, "lon": 17.6410248}, {"type": "node", "id": 4346025935, "lat": 59.8541401, "lon": 17.6409458}, {"type": "node", "id": 4346025936, "lat": 59.8541508, "lon": 17.6409136}, {"type": "node", "id": 4346025937, "lat": 59.8541522, "lon": 17.6408841}, {"type": "node", "id": 4346025938, "lat": 59.8541441, "lon": 17.6408465}, {"type": "node", "id": 4346025939, "lat": 59.8541589, "lon": 17.6408036}, {"type": "node", "id": 4346025940, "lat": 59.8541508, "lon": 17.6407733}, {"type": "node", "id": 4346025941, "lat": 59.854165, "lon": 17.6407584}, {"type": "node", "id": 4346025942, "lat": 59.854142, "lon": 17.6406722}, {"type": "node", "id": 4346025943, "lat": 59.8541293, "lon": 17.6406856}, {"type": "node", "id": 4346025944, "lat": 59.8541131, "lon": 17.6406641}, {"type": "node", "id": 4346025945, "lat": 59.8540996, "lon": 17.6406615}, {"type": "node", "id": 4346025946, "lat": 59.8540808, "lon": 17.6406695}, {"type": "node", "id": 4346025947, "lat": 59.8540531, "lon": 17.6405773}, {"type": "node", "id": 4346025948, "lat": 59.853967, "lon": 17.6406799}, {"type": "node", "id": 4346025949, "lat": 59.8539248, "lon": 17.6405396}, {"type": "node", "id": 4346025950, "lat": 59.8537713, "lon": 17.6407224}, {"type": "node", "id": 4346025951, "lat": 59.8538415, "lon": 17.6409561}, {"type": "node", "id": 4346025952, "lat": 59.8538744, "lon": 17.6409169}, {"type": "node", "id": 4346025953, "lat": 59.8538924, "lon": 17.6409768}, {"type": "node", "id": 4346025954, "lat": 59.8537678, "lon": 17.6411252}, {"type": "node", "id": 4346025955, "lat": 59.8537892, "lon": 17.6411961}, {"type": "node", "id": 4346025956, "lat": 59.8538096, "lon": 17.6411718}, {"type": "node", "id": 4346025957, "lat": 59.8538195, "lon": 17.6412048}, {"type": "node", "id": 4346025958, "lat": 59.8538591, "lon": 17.6411577}, {"type": "node", "id": 4346025959, "lat": 59.853876, "lon": 17.641214}, {"type": "node", "id": 4346025960, "lat": 59.8538572, "lon": 17.641222}, {"type": "node", "id": 4346025961, "lat": 59.8538451, "lon": 17.641222}, {"type": "node", "id": 4346025962, "lat": 59.8538329, "lon": 17.6412328}, {"type": "node", "id": 4346025963, "lat": 59.8538222, "lon": 17.6412542}, {"type": "node", "id": 4346025964, "lat": 59.8538168, "lon": 17.6412891}, {"type": "node", "id": 4346025965, "lat": 59.8538168, "lon": 17.6413186}, {"type": "node", "id": 4346025966, "lat": 59.853841, "lon": 17.6413776}, {"type": "node", "id": 4346025967, "lat": 59.8538612, "lon": 17.6413883}, {"type": "node", "id": 4346025968, "lat": 59.8538787, "lon": 17.6413803}, {"type": "node", "id": 4346025969, "lat": 59.8538976, "lon": 17.6413293}, {"type": "node", "id": 4346025970, "lat": 59.8539003, "lon": 17.6413025}, {"type": "node", "id": 4346025971, "lat": 59.853955, "lon": 17.6414917}, {"type": "node", "id": 4346025972, "lat": 59.8540237, "lon": 17.6414129}, {"type": "node", "id": 4346025973, "lat": 59.8539741, "lon": 17.6412414}, {"type": "node", "id": 4350992238, "lat": 59.9136031, "lon": 17.5742179, "tags": {"addr:city": "Uppsala", "addr:country": "SE", "addr:housenumber": "21", "addr:postcode": "75593", "addr:street": "Ulva", "amenity": "cafe", "description": "http://www.ulvakvarn.com/index.php/butiker/cafe-ulva-kvarn/", "internet_access": "no", "name": "Caf\u00e9 Ulva Kvarn", "outdoor_seating": "yes", "smoking": "outside"}}, {"type": "node", "id": 4362453170, "lat": 59.8688497, "lon": 17.6289855, "tags": {"amenity": "restaurant", "name": "Indian Mahal"}}, {"type": "node", "id": 4362453555, "lat": 59.8689404, "lon": 17.6289373, "tags": {"amenity": "restaurant", "name": "Pizza Etna"}}, {"type": "node", "id": 4362526743, "lat": 59.8547404, "lon": 17.8316493, "tags": {"amenity": "restaurant", "name": "Stiernhielms p\u00e5 landet krog och livs"}}, {"type": "node", "id": 4362529029, "lat": 59.9394718, "lon": 17.656712, "tags": {"addr:city": "Uppsala", "addr:country": "SE", "addr:housenumber": "101", "addr:postcode": "75594", "addr:street": "Fuller\u00f6backe", "amenity": "restaurant", "cuisine": "pizza;coffee_shop;burger;international;kebab;chicken;ice_cream;fish_and_chips;steak_house;american", "email": "info@kockenokallskankan.se", "name": "Kocken & Kallsk\u00e4nkan", "outdoor_seating": "yes", "payment:cash": "yes", "payment:credit_cards": "yes", "payment:visa": "yes", "takeaway": "yes"}}, {"type": "node", "id": 4362538258, "lat": 59.8578258, "lon": 17.4317488, "tags": {"amenity": "restaurant"}}, {"type": "node", "id": 4406898590, "lat": 59.8470894, "lon": 17.6740655, "tags": {"addr:street": "Danmarksgatan", "amenity": "restaurant", "cuisine": "grill", "name": "Bolandsgrillen", "name:sv": "Bolandsgrillen"}}, {"type": "node", "id": 4406898591, "lat": 59.8533688, "lon": 17.6028419, "tags": {"amenity": "restaurant", "cuisine": "mediterranean;pizza", "name": "Pepperoni", "name:sv": "Pepperoni", "opening_hours": "Mo-Th 11:00-21:00; Fr 11:00-22:00; Sa 12:00-22:00; Su 12:00-21:00", "website": "https://www.pepperoni.nu/"}}, {"type": "node", "id": 4446542789, "lat": 59.8450888, "lon": 17.6658323, "tags": {"addr:country": "SE", "addr:housenumber": "113", "addr:street": "Kungsgatan", "amenity": "restaurant", "cuisine": "mediterranean", "name": "V\u00e4rdshuset Liljan", "name:ar": "\u0644\u064a\u0644\u064a\u0627\u0646", "name:sv": "V\u00e4rdshuset Liljan"}}, {"type": "node", "id": 4626319389, "lat": 59.8617713, "lon": 17.6377004, "tags": {"addr:city": "Uppsala", "addr:country": "SE", "addr:housenumber": "27", "addr:postcode": "75321", "addr:street": "Kungsgatan", "amenity": "cafe", "indoor_seating": "yes", "name": "Green Cup Caf\u00e9", "outdoor_seating": "no", "phone": "+46 18 4905100", "website": "https://housingoffice.se/green-cup-cafe/"}}, {"type": "node", "id": 4634172508, "lat": 59.8397925, "lon": 17.6464498, "tags": {"amenity": "restaurant", "name": "Rullan", "opening_hours": "Mo-Fr 11:00-14:00", "smoking": "outside", "website": "https://www.matikum.se/"}}, {"type": "node", "id": 4806510868, "lat": 59.8108163, "lon": 17.7024615, "tags": {"amenity": "cafe", "name": "Kaf\u00e9 Hj\u00e4rtat", "opening_hours": "Mo 12:00-17:00; Tu 12:00-17:00; We 12:00-17:00; Th 12:00-17:00; Fr 12:00-22:00; Sa 11:00-15:00", "operator": "Svenska Kyrkan"}}, {"type": "node", "id": 4822950927, "lat": 59.6520644, "lon": 17.9373285, "tags": {"amenity": "bar", "name": "Menzies Lounge"}}, {"type": "node", "id": 4823633322, "lat": 59.6522048, "lon": 17.9330488, "tags": {"amenity": "restaurant", "name": "Oak"}}, {"type": "node", "id": 4823633323, "lat": 59.6520365, "lon": 17.9330983, "tags": {"amenity": "restaurant", "name": "Pontus in the Air!"}}, {"type": "node", "id": 4823633332, "lat": 59.6528325, "lon": 17.9306636, "tags": {"amenity": "restaurant", "check_date": "2023-03-24", "name": "Taco Bar"}}, {"type": "node", "id": 4823633341, "lat": 59.6523185, "lon": 17.9349802, "tags": {"amenity": "bar", "name": "Taste of Scandinavia"}}, {"type": "node", "id": 4823633423, "lat": 59.6526111, "lon": 17.9308409, "tags": {"amenity": "cafe", "check_date": "2023-03-24", "name": "RC"}}, {"type": "node", "id": 4823633523, "lat": 59.6534293, "lon": 17.9303948, "tags": {"amenity": "cafe", "check_date": "2023-03-24", "name": "Taste of Scandinavia"}}, {"type": "node", "id": 4823633730, "lat": 59.6522021, "lon": 17.9335499, "tags": {"amenity": "cafe", "brand": "Joe & The Juice", "brand:wikidata": "Q26221514", "cuisine": "coffee_shop", "name": "Joe & The Juice", "takeaway": "yes"}}, {"type": "node", "id": 4829281555, "lat": 59.8314349, "lon": 17.6366818, "tags": {"addr:country": "SE", "addr:housenumber": "1F", "addr:street": "V\u00e5rds\u00e4trav\u00e4gen", "amenity": "restaurant", "cuisine": "pizza", "name": "Pizzabakeren Rosendal", "opening_hours": "Mo-Fr 12:00-20:45; Sa,Su 12:00-22:00"}}, {"type": "node", "id": 4829294954, "lat": 59.8597729, "lon": 17.6466184, "tags": {"addr:city": "Uppsala", "addr:country": "SE", "addr:housenumber": "27", "addr:postcode": "75331", "addr:street": "Storgatan", "amenity": "restaurant", "cuisine": "asian", "name": "Pong", "opening_hours": "Mo,Tu 11:00-15:00,17:00-22:00; We-Fr 11:00-15:00,17:00-23:00; Sa 12:00-23:00; Su 12:00-22:00", "phone": "+46 18 102828", "takeaway": "yes", "website": "https://ponguppsala.se/"}}, {"type": "node", "id": 4856314194, "lat": 59.6406946, "lon": 17.9431337, "tags": {"amenity": "restaurant", "name": "Resturang Bana 4", "opening_hours": "Mo-Fr 09:00-14:00"}}, {"type": "node", "id": 5025967396, "lat": 59.6509648, "lon": 17.9276635, "tags": {"access": "customers", "amenity": "cafe", "description:en": "self-service cafe offering organic coffee and tea", "name": "Eatery", "organic": "limited"}}, {"type": "node", "id": 5046168221, "lat": 59.8652694, "lon": 17.6298691, "tags": {"addr:city": "Uppsala", "addr:country": "SE", "addr:housenumber": "40", "addr:postcode": "75332", "addr:street": "Svartb\u00e4cksgatan", "amenity": "restaurant", "cuisine": "sushi", "email": "Info.ukumo@yahoo.com", "name": "Ukumo Sushi & Poke", "opening_hours": "Mo-Fr 11:00-20:00; Sa,Su 12:00-20:00", "phone": "+46 703374957", "website": "https://qopla.com/restaurant/ukumo-sushi-&-poke/q4PpLdkxjY/home"}}, {"type": "node", "id": 5066149236, "lat": 59.6148637, "lon": 17.7199645, "tags": {"addr:city": "Sigtuna", "addr:country": "SE", "addr:housenumber": "45", "addr:postcode": "193 30", "addr:street": "Stora Gatan", "amenity": "cafe", "internet_access": "no", "name": "Pl\u00e5t-Pelles mat & caf\u00e9", "outdoor_seating": "yes", "phone": "+46 7077 79500"}}, {"type": "node", "id": 5070022361, "lat": 59.5752713, "lon": 17.5158116, "tags": {"amenity": "restaurant", "cuisine": "pizza", "name": "Mamma Mia"}}, {"type": "node", "id": 5070022362, "lat": 59.5766655, "lon": 17.5130658, "tags": {"amenity": "restaurant", "cuisine": "greek"}}, {"type": "node", "id": 5089886395, "lat": 59.8440468, "lon": 17.6143966, "tags": {"addr:city": "Uppsala", "addr:country": "SE", "addr:housenumber": "91", "addr:postcode": "75239", "addr:street": "Karlsrogatan", "amenity": "restaurant", "cuisine": "chinese", "name": "Victoriahamnen", "opening_hours": "Mo-Th 11:00-21:00, Fr 11:00-22:00, Sa 14:00-22:00, Su 14:00-21:00", "outdoor_seating": "yes", "smoking": "no", "takeaway": "yes", "website": "https://victoriahamnen.se/"}}, {"type": "node", "id": 5109382120, "lat": 59.8573597, "lon": 17.6364569, "tags": {"addr:country": "SE", "addr:housenumber": "6a", "addr:street": "Drottninggatan", "amenity": "cafe", "cuisine": "coffee_shop", "diet:gluten_free": "yes", "diet:vegetarian": "yes", "indoor_seating": "yes", "internet_access": "wlan", "internet_access:fee": "customers", "name": "Arrenius & Company", "opening_hours": "Mo-Fr 10:30-17:00; Sa 11:00-16:30", "outdoor_seating": "no", "phone": "+46018143070", "website": "https://arreniuscompany.com"}}, {"type": "node", "id": 5113535381, "lat": 59.8700635, "lon": 17.670161, "tags": {"addr:city": "Uppsala", "addr:country": "SE", "addr:housenumber": "16", "addr:postcode": "75434", "addr:street": "Skomakargatan", "amenity": "restaurant", "cuisine": "persian", "description": "Persiskt k\u00f6k & kolgrill", "name": "Sofreh", "opening_hours": "Mo-Fr 11:00-21:00; Sa 12:00-21:00; Su 12:00-18:00", "outdoor_seating": "yes", "phone": "+46 18 242560", "website": "https://sofreh.se/"}}, {"type": "node", "id": 5113816791, "lat": 59.524664, "lon": 17.611358, "tags": {"amenity": "cafe"}}, {"type": "node", "id": 5139781775, "lat": 59.8680354, "lon": 17.6625178, "tags": {"entrance": "main"}}, {"type": "node", "id": 5163462646, "lat": 59.8500487, "lon": 17.6422523, "tags": {"addr:city": "Uppsala", "addr:country": "SE", "addr:housenumber": "55", "addr:place": "Bl\u00e5 Korset", "description": "55", "entrance": "yes", "ref": "55", "restaurant": "restaurant"}}, {"type": "node", "id": 5167821921, "lat": 59.8747434, "lon": 17.6229126, "tags": {"addr:city": "Uppsala", "addr:country": "SE", "addr:housenumber": "3", "addr:postcode": "75335", "addr:street": "Torbj\u00f6rnsgatan", "amenity": "restaurant", "name": "Tuna K\u00f6k & Bar", "opening_hours": "Mo-To 11:00-21:00; Fr 11:00-22:00; Sa 12:00-22:00; Su 12:00-21:00", "phone": "+46 18 200501", "website": "http://tunak\u00f6kbar.se/"}}, {"type": "node", "id": 5170010007, "lat": 59.7555065, "lon": 17.7799515, "tags": {"amenity": "restaurant"}}, {"type": "node", "id": 5179505021, "lat": 59.8582593, "lon": 17.6262722, "tags": {"addr:country": "SE", "addr:housenumber": "23", "addr:street": "Sankt Johannesgatan", "amenity": "cafe", "cuisine": "regional", "name": "Br\u00f6bon", "opening_hours": "Tu-Th 10:00-17:00; Fr-Sa 10:00-16:00"}}, {"type": "node", "id": 5260494703, "lat": 59.8522746, "lon": 17.5890831}, {"type": "node", "id": 5260494704, "lat": 59.8522999, "lon": 17.5890967}, {"type": "node", "id": 5260494705, "lat": 59.8523189, "lon": 17.5889558}, {"type": "node", "id": 5260494706, "lat": 59.8524142, "lon": 17.5890068}, {"type": "node", "id": 5260494707, "lat": 59.8523699, "lon": 17.5893358}, {"type": "node", "id": 5260494708, "lat": 59.8522709, "lon": 17.5892828}, {"type": "node", "id": 5260494709, "lat": 59.8522816, "lon": 17.5892036}, {"type": "node", "id": 5288417723, "lat": 59.8587463, "lon": 17.4314527}, {"type": "node", "id": 5288417724, "lat": 59.8585994, "lon": 17.4316972}, {"type": "node", "id": 5288417725, "lat": 59.8586761, "lon": 17.43188}, {"type": "node", "id": 5288417726, "lat": 59.8588105, "lon": 17.4316056}, {"type": "node", "id": 5342558880, "lat": 59.5667445, "lon": 17.5286317, "tags": {"amenity": "cafe", "brand": "Espresso House", "brand:wikidata": "Q10489162", "brand:wikipedia": "en:Espresso House", "cuisine": "coffee_shop", "name": "Espresso House", "opening_hours": "Mo-Fr 09:00-20:00, Sa 09:00-16:00, Su 10:00-16:00", "takeaway": "yes"}}, {"type": "node", "id": 5352683322, "lat": 59.8616808, "lon": 17.6329952, "tags": {"addr:city": "Uppsala", "addr:country": "SE", "addr:housenumber": "24", "addr:postcode": "75332", "addr:street": "Svartbacksgatan", "amenity": "restaurant", "name": "Basilico", "opening_hours": "Mo-Fr 17:00-22:00; Sa,Su 12:00-22:00", "phone": "+46 18 125010", "website": "https://www.basilico.se/"}}, {"type": "node", "id": 5418582425, "lat": 59.9516212, "lon": 17.8765434, "tags": {"amenity": "restaurant", "name": "Black Castle"}}, {"type": "node", "id": 5465386221, "lat": 59.8613087, "lon": 17.6350281, "tags": {"addr:country": "SE", "addr:housenumber": "32E", "addr:postcode": "75330", "addr:street": "Sankt Olofsgatan", "amenity": "restaurant", "cuisine": "crepe", "email": "kontakt@creperielemoni.se", "internet_access": "wlan", "name": "Cr\u00eaperie Lemoni", "opening_hours": "Mo-Th 11:00-22:00; Su 12:00-19:00; Fr-Sa 11:00-23:00", "outdoor_seating": "yes", "phone": "+4618133034", "website": "https://creperielemoni.se/", "wheelchair": "limited"}}, {"type": "node", "id": 5480082003, "lat": 59.8594942, "lon": 17.6405598, "tags": {"amenity": "restaurant", "name": "Mjesto"}}, {"type": "node", "id": 5548213922, "lat": 59.5256301, "lon": 17.9145966, "tags": {"addr:country": "SE", "addr:housenumber": "16", "addr:postcode": "19436", "addr:street": "Hammarbyv\u00e4gen", "amenity": "restaurant", "cuisine": "pizza", "name": "Restaurang Sigma", "opening_hours": "Mo-Su 10:00-22:00", "phone": "+46 0859031152", "website": "https://onlinepizza.se/upplands-vasby/pizzeria-sigma/"}}, {"type": "node", "id": 5779413726, "lat": 59.5206537, "lon": 17.9071805, "tags": {"amenity": "restaurant", "cuisine": "indian", "delivery": "yes", "email": "info@indiancolors.se", "name": "Indian Colors", "opening_hours": "Mo-Th 11:00-21:00; Fr 11:00-22:00; Sa 13:00-22:00; Su 13:00-21:00", "phone": "+46 8-366908", "takeaway": "yes", "website": "http://indiancolors.se/"}}, {"type": "node", "id": 5861381907, "lat": 59.6614698, "lon": 17.3226231, "tags": {"amenity": "restaurant", "name": "Chiefland"}}, {"type": "node", "id": 5913167283, "lat": 59.8629503, "lon": 17.6452304, "tags": {"addr:city": "Uppsala", "addr:country": "SE", "addr:housenumber": "33", "addr:street": "Sankt Persgatan", "amenity": "restaurant", "cuisine": "seafood", "name": "Uppstr\u00f6ms Fisk&Skaldjur", "outdoor_seating": "no", "smoking": "no"}}, {"type": "node", "id": 5913172152, "lat": 59.8626715, "lon": 17.645099, "tags": {"addr:city": "Uppsala", "addr:country": "SE", "addr:housenumber": "33", "addr:street": "Sankt Persgatan", "amenity": "restaurant", "cuisine": "asian", "name": "Uppsala Banh Mi", "outdoor_seating": "no", "smoking": "no"}}, {"type": "node", "id": 5968462935, "lat": 59.8434824, "lon": 17.6416012, "tags": {"amenity": "restaurant", "name": "Hubben"}}, {"type": "node", "id": 6128810875, "lat": 59.8108127, "lon": 17.6295812, "tags": {"amenity": "restaurant", "cuisine": "indian", "name": "Indian Khusboo", "takeaway": "yes"}},